UBIGEO,ANIO,CCDD,NOMBREDD,CCPP,NOMBREPV,CCDI,NOMBREDI,CONGLOMERADO,REGION,ZONA,X,Y,LONGITUD,LATITUD,ALTITUD
060201,2018.0,06,CAJAMARCA,02,CAJABAMBA,01,CAJABAMBA,05017,Sierra,17.0,827309.0,9155675.0,-78.03375,-7.62824,2851.0
060201,2018.0,06,CAJAMARCA,02,CAJABAMBA,01,CAJABAMBA,04999,Sierra,17.0,826187.0,9159160.0,-78.04413,-7.59683,2830.0
060202,2018.0,06,CAJAMARCA,02,CAJABAMBA,02,CACHACHI,04929,Sierra,17.0,800297.0,9150080.0,-78.27803,-7.6804,3948.0
060202,2018.0,06,CAJAMARCA,02,CAJABAMBA,02,CACHACHI,04922,Sierra,17.0,803778.0,9157127.0,-78.24692,-7.61653,2856.0
060202,2018.0,06,CAJAMARCA,02,CAJABAMBA,02,CACHACHI,04904,Sierra,17.0,814326.0,9158194.0,-78.15147,-7.60627,2223.0
060202,2018.0,06,CAJAMARCA,02,CAJABAMBA,02,CACHACHI,04892,Sierra,17.0,797842.0,9162432.0,-78.30097,-7.56893,3481.0
060202,2018.0,06,CAJAMARCA,02,CAJABAMBA,02,CACHACHI,04883,Sierra,17.0,810683.0,9165758.0,-78.1849,-7.53815,2132.0
060203,2018.0,06,CAJAMARCA,02,CAJABAMBA,03,CONDEBAMBA,04946,Sierra,17.0,815259.0,9168174.0,-78.14361,-7.51606,2065.0
060204,2018.0,06,CAJAMARCA,02,CAJABAMBA,04,SITACOCHA,04978,Sierra,18.0,178487.0,9174350.0,-77.91263,-7.45989,3402.0
061304,2018.0,06,CAJAMARCA,13,SANTA CRUZ,04,CHANCAYBAÑOS,03481,Sierra,17.0,731450.0,9276257.0,-78.90693,-6.54329,2103.0
061304,2018.0,06,CAJAMARCA,13,SANTA CRUZ,04,CHANCAYBAÑOS,03480,Sierra,17.0,728147.0,9276965.0,-78.93681,-6.53701,1928.0
061001,2018.0,06,CAJAMARCA,10,SAN MARCOS,01,PEDRO GALVEZ,04808,Sierra,17.0,817201.0,9188304.0,-78.12721,-7.33408,2421.0
061001,2018.0,06,CAJAMARCA,10,SAN MARCOS,01,PEDRO GALVEZ,04780,Sierra,17.0,810860.0,9191214.0,-78.18475,-7.30815,2640.0
061004,2018.0,06,CAJAMARCA,10,SAN MARCOS,04,GREGORIO PITA,04691,Sierra,17.0,815927.0,9198184.0,-78.1393,-7.24489,2917.0
061006,2018.0,06,CAJAMARCA,10,SAN MARCOS,06,JOSE MANUEL QUIROZ,04763,Sierra,17.0,828094.0,9186857.0,-78.02855,-7.34651,3600.0
061007,2018.0,06,CAJAMARCA,10,SAN MARCOS,07,JOSE SABOGAL,04720,Sierra,17.0,827628.0,9204241.0,-78.03381,-7.1895,3320.0
061202,2018.0,06,CAJAMARCA,12,SAN PABLO,02,SAN BERNARDINO,03788,Sierra,17.0,748382.0,9208714.0,-78.75102,-7.15315,2497.0
061201,2018.0,06,CAJAMARCA,12,SAN PABLO,01,SAN PABLO,03778,Sierra,17.0,746025.0,9211610.0,-78.77248,-7.12707,2776.0
061201,2018.0,06,CAJAMARCA,12,SAN PABLO,01,SAN PABLO,03770,Sierra,17.0,741083.0,9215166.0,-78.81736,-7.09514,2844.0
060306,2018.0,06,CAJAMARCA,03,CELENDIN,06,JOSE GALVEZ,04631,Sierra,17.0,812538.0,9235234.0,-78.17201,-6.91034,2976.0
060312,2018.0,06,CAJAMARCA,03,CELENDIN,12,LA LIBERTAD DE PALLAN,04332,Sierra,17.0,800756.0,9261223.0,-78.27985,-6.67613,3290.0
060302,2018.0,06,CAJAMARCA,03,CELENDIN,02,CHUMUCH,04311,Sierra,17.0,814006.0,9273638.0,-78.16075,-6.56329,1442.0
060304,2018.0,06,CAJAMARCA,03,CELENDIN,04,HUASMIN,04461,Sierra,17.0,803576.0,9243865.0,-78.25348,-6.83283,2016.0
060309,2018.0,06,CAJAMARCA,03,CELENDIN,09,SOROCHUCO,04568,Sierra,17.0,801430.0,9232743.0,-78.27231,-6.93343,2988.0
060309,2018.0,06,CAJAMARCA,03,CELENDIN,09,SOROCHUCO,04523,Sierra,17.0,801247.0,9238053.0,-78.27424,-6.88547,2761.0
060904,2018.0,06,CAJAMARCA,09,SAN IGNACIO,04,LA COIPA,01974,Selva,17.0,727943.0,9406294.0,-78.943,-5.36783,1830.0
060906,2018.0,06,CAJAMARCA,09,SAN IGNACIO,06,SAN JOSE DE LOURDES,01889,Selva,17.0,743645.0,9442443.0,-78.80252,-5.04055,1244.0
060902,2018.0,06,CAJAMARCA,09,SAN IGNACIO,02,CHIRINOS,01946,Selva,17.0,723802.0,9412523.0,-78.98055,-5.31163,1984.0
060901,2018.0,06,CAJAMARCA,09,SAN IGNACIO,01,SAN IGNACIO,01839,Selva,17.0,717467.0,9433747.0,-79.03828,-5.11992,1553.0
060901,2018.0,06,CAJAMARCA,09,SAN IGNACIO,01,SAN IGNACIO,01836,Selva,17.0,724421.0,9433494.0,-78.97557,-5.12202,1030.0
060904,2018.0,06,CAJAMARCA,09,SAN IGNACIO,04,LA COIPA,01973,Selva,17.0,728984.0,9403930.0,-78.93354,-5.38916,2068.0
060901,2018.0,06,CAJAMARCA,09,SAN IGNACIO,01,SAN IGNACIO,01846,Selva,17.0,719881.0,9431349.0,-79.01645,-5.14154,1482.0
060801,2018.0,06,CAJAMARCA,08,JAEN,01,JAEN,02165,Selva,17.0,727670.0,9359867.0,-78.94401,-5.78756,2561.0
060805,2018.0,06,CAJAMARCA,08,JAEN,05,HUABAL,02090,Selva,17.0,736823.0,9383760.0,-78.86218,-5.57126,1165.0
060811,2018.0,06,CAJAMARCA,08,JAEN,11,SAN JOSE DEL ALTO,02081,Selva,17.0,707506.0,9393757.0,-79.12702,-5.48177,1807.0
060811,2018.0,06,CAJAMARCA,08,JAEN,11,SAN JOSE DEL ALTO,02089,Selva,17.0,725947.0,9385468.0,-78.96038,-5.55616,1510.0
060811,2018.0,06,CAJAMARCA,08,JAEN,11,SAN JOSE DEL ALTO,02073,Selva,17.0,708748.0,9400232.0,-79.11599,-5.42319,1676.0
061308,2018.0,06,CAJAMARCA,13,SANTA CRUZ,08,SAUCEPAMPA,03564,Sierra,17.0,730995.0,9261730.0,-78.91049,-6.67463,1986.0
061306,2018.0,06,CAJAMARCA,13,SANTA CRUZ,06,NINABAMBA,03503,Sierra,17.0,745849.0,9264102.0,-78.77629,-6.65259,2378.0
061101,2018.0,06,CAJAMARCA,11,SAN MIGUEL,01,SAN MIGUEL,03696,Sierra,17.0,732942.0,9219510.0,-78.89121,-7.05621,2494.0
061106,2018.0,06,CAJAMARCA,11,SAN MIGUEL,06,LA FLORIDA,03608,Costa,17.0,712388.0,9238413.0,-79.0779,-6.88612,1582.0
061107,2018.0,06,CAJAMARCA,11,SAN MIGUEL,07,LLAPA,03650,Sierra,17.0,741137.0,9228127.0,-78.81742,-6.97798,3079.0
061108,2018.0,06,CAJAMARCA,11,SAN MIGUEL,08,NANCHOC,03732,Costa,17.0,695000.0,9235185.0,-79.2351,-6.91591,831.0
061111,2018.0,06,CAJAMARCA,11,SAN MIGUEL,11,SAN SILVESTRE DE COCHAN,03669,Sierra,17.0,744735.0,9224670.0,-78.78472,-7.00908,2848.0
061111,2018.0,06,CAJAMARCA,11,SAN MIGUEL,11,SAN SILVESTRE DE COCHAN,03662,Sierra,17.0,747074.0,9228820.0,-78.76374,-6.97146,3128.0
061102,2018.0,06,CAJAMARCA,11,SAN MIGUEL,02,BOLIVAR,03729,Costa,17.0,706970.0,9229770.0,-79.12661,-6.96445,1817.0
060501,2018.0,06,CAJAMARCA,05,CONTUMAZA,01,CONTUMAZA,03818,Sierra,17.0,754175.0,9188712.0,-78.69768,-7.33368,3137.0
060503,2018.0,06,CAJAMARCA,05,CONTUMAZA,03,CUPISNIQUE,03844,Sierra,17.0,712313.0,9181341.0,-79.07642,-7.4021,2100.0
060508,2018.0,06,CAJAMARCA,05,CONTUMAZA,08,YONAN,03799,Costa,17.0,698109.0,9189937.0,-79.20538,-7.32492,944.0
060702,2018.0,06,CAJAMARCA,07,HUALGAYOC,02,CHUGUR,03071,Sierra,17.0,749723.0,9262913.0,-78.74122,-6.66319,2644.0
060702,2018.0,06,CAJAMARCA,07,HUALGAYOC,02,CHUGUR,03067,Sierra,17.0,747980.0,9263177.0,-78.75699,-6.66088,2370.0
060702,2018.0,06,CAJAMARCA,07,HUALGAYOC,02,CHUGUR,03070,Sierra,17.0,751064.0,9264323.0,-78.72915,-6.65038,2820.0
060702,2018.0,06,CAJAMARCA,07,HUALGAYOC,02,CHUGUR,03074,Sierra,17.0,755385.0,9263467.0,-78.69005,-6.65795,3363.0
060703,2018.0,06,CAJAMARCA,07,HUALGAYOC,03,HUALGAYOC,03151,Sierra,17.0,764415.0,9256076.0,-78.6081,-6.72435,3600.0
060701,2018.0,06,CAJAMARCA,07,HUALGAYOC,01,BAMBAMARCA,03325,Sierra,17.0,772172.0,9258950.0,-78.5381,-6.69804,2777.0
060802,2018.0,06,CAJAMARCA,08,JAEN,02,BELLAVISTA,02137,Selva,17.0,730719.0,9388608.0,-78.91742,-5.52763,1770.0
060112,2018.0,06,CAJAMARCA,01,CAJAMARCA,12,SAN JUAN,04237,Sierra,17.0,777078.0,9194583.0,-78.49065,-7.27951,2804.0
060109,2018.0,06,CAJAMARCA,01,CAJAMARCA,09,MAGDALENA,04257,Sierra,17.0,769620.0,9195473.0,-78.55819,-7.27184,2372.0
060109,2018.0,06,CAJAMARCA,01,CAJAMARCA,09,MAGDALENA,04243,Sierra,17.0,751559.0,9201491.0,-78.72195,-7.21829,1399.0
060107,2018.0,06,CAJAMARCA,01,CAJAMARCA,07,LLACANORA,04218,Sierra,17.0,784837.0,9206476.0,-78.42104,-7.17164,2894.0
060107,2018.0,06,CAJAMARCA,01,CAJAMARCA,07,LLACANORA,04223,Sierra,17.0,789385.0,9208006.0,-78.37998,-7.15759,3169.0
060108,2018.0,06,CAJAMARCA,01,CAJAMARCA,08,LOS BAÑOS DEL INCA,03997,Sierra,17.0,784916.0,9214728.0,-78.42075,-7.09706,3024.0
060108,2018.0,06,CAJAMARCA,01,CAJAMARCA,08,LOS BAÑOS DEL INCA,04005,Sierra,17.0,778484.0,9210235.0,-78.47871,-7.13799,2687.0
060102,2018.0,06,CAJAMARCA,01,CAJAMARCA,02,ASUNCION,04280,Sierra,17.0,775378.0,9185978.0,-78.50561,-7.35736,3335.0
060105,2018.0,06,CAJAMARCA,01,CAJAMARCA,05,ENCAÑADA,04075,Sierra,17.0,788920.0,9222185.0,-78.3849,-7.02948,3488.0
060101,2018.0,06,CAJAMARCA,01,CAJAMARCA,01,CAJAMARCA,03919,Sierra,17.0,772899.0,9210371.0,-78.52925,-7.13704,2804.0
060105,2018.0,06,CAJAMARCA,01,CAJAMARCA,05,ENCAÑADA,04132,Sierra,17.0,802741.0,9215785.0,-78.25956,-7.08659,3599.0
060105,2018.0,06,CAJAMARCA,01,CAJAMARCA,05,ENCAÑADA,04047,Sierra,17.0,778118.0,9237875.0,-78.48336,-6.88822,3733.0
060105,2018.0,06,CAJAMARCA,01,CAJAMARCA,05,ENCAÑADA,04051,Sierra,17.0,770965.0,9240714.0,-78.54818,-6.8629,3583.0
060105,2018.0,06,CAJAMARCA,01,CAJAMARCA,05,ENCAÑADA,04046,Sierra,17.0,778699.0,9241389.0,-78.47828,-6.85643,3406.0
060105,2018.0,06,CAJAMARCA,01,CAJAMARCA,05,ENCAÑADA,04072,Sierra,17.0,786531.0,9220391.0,-78.40642,-7.04582,3052.0
060607,2018.0,06,CAJAMARCA,06,CUTERVO,07,QUEROCOTILLO,02271,Sierra,17.0,716124.0,9305206.0,-79.04647,-6.28212,2204.0
060607,2018.0,06,CAJAMARCA,06,CUTERVO,07,QUEROCOTILLO,02251,Sierra,17.0,714660.0,9307751.0,-79.05978,-6.25916,1683.0
060601,2018.0,06,CAJAMARCA,06,CUTERVO,01,CUTERVO,02497,Sierra,17.0,736975.0,9293460.0,-78.85765,-6.38756,2719.0
060601,2018.0,06,CAJAMARCA,06,CUTERVO,01,CUTERVO,02509,Sierra,17.0,734087.0,9293594.0,-78.88374,-6.38646,2295.0
060601,2018.0,06,CAJAMARCA,06,CUTERVO,01,CUTERVO,02490,Sierra,17.0,742302.0,9294054.0,-78.80953,-6.38199,2623.0
060601,2018.0,06,CAJAMARCA,06,CUTERVO,01,CUTERVO,02463,Sierra,17.0,730200.0,9296609.0,-78.91898,-6.35935,1536.0
060419,2018.0,06,CAJAMARCA,04,CHOTA,19,CHALAMARCA,03026,Sierra,17.0,780523.0,9278758.0,-78.46353,-6.51864,2586.0
060408,2018.0,06,CAJAMARCA,04,CHOTA,08,CONCHAN,02878,Sierra,17.0,761250.0,9283742.0,-78.6379,-6.47444,2606.0
060408,2018.0,06,CAJAMARCA,04,CHOTA,08,CONCHAN,02876,Sierra,17.0,758969.0,9285289.0,-78.65857,-6.46055,2598.0
060401,2018.0,06,CAJAMARCA,04,CHOTA,01,CHOTA,02851,Sierra,17.0,761947.0,9270247.0,-78.63103,-6.59638,2578.0
060401,2018.0,06,CAJAMARCA,04,CHOTA,01,CHOTA,02756,Sierra,17.0,756868.0,9281720.0,-78.67742,-6.49289,2593.0
060404,2018.0,06,CAJAMARCA,04,CHOTA,04,CHIGUIRIP,02918,Sierra,17.0,752953.0,9286169.0,-78.71297,-6.45285,3037.0
060413,2018.0,06,CAJAMARCA,04,CHOTA,13,PACCHA,03058,Sierra,17.0,785327.0,9278517.0,-78.42011,-6.52059,2695.0
060405,2018.0,06,CAJAMARCA,04,CHOTA,05,CHIMBAN,02990,Selva,17.0,786451.0,9307087.0,-78.41125,-6.26236,2193.0
060409,2018.0,06,CAJAMARCA,04,CHOTA,09,HUAMBOS,02671,Sierra,17.0,729124.0,9281762.0,-78.92815,-6.4936,2326.0
060409,2018.0,06,CAJAMARCA,04,CHOTA,09,HUAMBOS,02664,Sierra,17.0,726796.0,9285445.0,-78.94934,-6.4604,2328.0
060409,2018.0,06,CAJAMARCA,04,CHOTA,09,HUAMBOS,02660,Sierra,17.0,727147.0,9288759.0,-78.94628,-6.43042,2143.0
060401,2018.0,06,CAJAMARCA,04,CHOTA,01,CHOTA,02813,Sierra,17.0,755336.0,9271252.0,-78.69083,-6.58758,2807.0
060601,2018.0,06,CAJAMARCA,06,CUTERVO,01,CUTERVO,02436,Sierra,17.0,729830.0,9301448.0,-78.92249,-6.31561,1893.0
060601,2018.0,06,CAJAMARCA,06,CUTERVO,01,CUTERVO,02446,Sierra,17.0,740044.0,9301581.0,-78.83022,-6.31403,2643.0
060601,2018.0,06,CAJAMARCA,06,CUTERVO,01,CUTERVO,02427,Sierra,17.0,733855.0,9302059.0,-78.88615,-6.30995,2333.0
060607,2018.0,06,CAJAMARCA,06,CUTERVO,07,QUEROCOTILLO,02264,Sierra,17.0,725128.0,9307858.0,-78.9652,-6.25783,1711.0
060607,2018.0,06,CAJAMARCA,06,CUTERVO,07,QUEROCOTILLO,02237,Sierra,17.0,709599.0,9311672.0,-79.10563,-6.22388,1821.0
060611,2018.0,06,CAJAMARCA,06,CUTERVO,11,SANTA CRUZ,02310,Sierra,17.0,742063.0,9317008.0,-78.81256,-6.17451,1717.0
060607,2018.0,06,CAJAMARCA,06,CUTERVO,07,QUEROCOTILLO,02222,Sierra,17.0,719781.0,9323624.0,-79.01405,-6.11548,2172.0
060611,2018.0,06,CAJAMARCA,06,CUTERVO,11,SANTA CRUZ,02308,Sierra,17.0,742492.0,9324221.0,-78.80894,-6.10928,1557.0
060601,2018.0,06,CAJAMARCA,06,CUTERVO,01,CUTERVO,02569,Sierra,17.0,747566.0,9288986.0,-78.76177,-6.4276,2654.0
010703,2018.0,01,AMAZONAS,07,UTCUBAMBA,03,CUMBA,05212,Selva,17.0,763784.0,9343351.0,-78.61742,-5.93556,992.0
010701,2018.0,01,AMAZONAS,07,UTCUBAMBA,01,BAGUA GRANDE,05274,Selva,17.0,795757.0,9338515.0,-78.32863,-5.97795,1667.0
010701,2018.0,01,AMAZONAS,07,UTCUBAMBA,01,BAGUA GRANDE,05272,Selva,17.0,798391.0,9343179.0,-78.30505,-5.93568,1525.0
010701,2018.0,01,AMAZONAS,07,UTCUBAMBA,01,BAGUA GRANDE,05260,Selva,17.0,787929.0,9348842.0,-78.39972,-5.88496,1882.0
010701,2018.0,01,AMAZONAS,07,UTCUBAMBA,01,BAGUA GRANDE,05239,Selva,17.0,771753.0,9359213.0,-78.54612,-5.79189,875.0
010703,2018.0,01,AMAZONAS,07,UTCUBAMBA,03,CUMBA,05223,Selva,17.0,774482.0,9342981.0,-78.52084,-5.93848,2210.0
010703,2018.0,01,AMAZONAS,07,UTCUBAMBA,03,CUMBA,05214,Selva,17.0,772283.0,9347247.0,-78.54086,-5.90001,2236.0
010705,2018.0,01,AMAZONAS,07,UTCUBAMBA,05,JAMALCA,05333,Selva,17.0,806832.0,9332695.0,-78.2284,-6.03003,2087.0
010706,2018.0,01,AMAZONAS,07,UTCUBAMBA,06,LONYA GRANDE,05334,Selva,17.0,784345.0,9339119.0,-78.43165,-5.97298,2051.0
010702,2018.0,01,AMAZONAS,07,UTCUBAMBA,02,CAJARURO,05318,Selva,17.0,807956.0,9357387.0,-78.21937,-5.80688,1057.0
010702,2018.0,01,AMAZONAS,07,UTCUBAMBA,02,CAJARURO,05317,Selva,17.0,815208.0,9359186.0,-78.15403,-5.7903,2227.0
010702,2018.0,01,AMAZONAS,07,UTCUBAMBA,02,CAJARURO,05303,Selva,17.0,805347.0,9362449.0,-78.24313,-5.76125,977.0
010702,2018.0,01,AMAZONAS,07,UTCUBAMBA,02,CAJARURO,05298,Selva,17.0,800028.0,9364405.0,-78.29121,-5.74381,909.0
010702,2018.0,01,AMAZONAS,07,UTCUBAMBA,02,CAJARURO,05308,Selva,17.0,817106.0,9367604.0,-78.13729,-5.71415,2595.0
010503,2018.0,01,AMAZONAS,05,LUYA,03,COCABAMBA,05474,Sierra,18.0,168582.0,9262224.0,-77.99717,-6.66548,1440.0
010513,2018.0,01,AMAZONAS,05,LUYA,13,OCUMAL,05447,Sierra,17.0,806430.0,9299042.0,-78.23045,-6.33413,2521.0
010509,2018.0,01,AMAZONAS,05,LUYA,09,LUYA,05434,Sierra,18.0,175803.0,9315095.0,-77.92918,-6.18822,2120.0
010509,2018.0,01,AMAZONAS,05,LUYA,09,LUYA,05430,Sierra,17.0,827807.0,9317871.0,-78.03837,-6.16297,2916.0
010512,2018.0,01,AMAZONAS,05,LUYA,12,OCALLI,05438,Sierra,17.0,800622.0,9307954.0,-78.28332,-6.25388,1436.0
010512,2018.0,01,AMAZONAS,05,LUYA,12,OCALLI,05439,Sierra,17.0,803037.0,9308890.0,-78.26155,-6.24531,1339.0
010512,2018.0,01,AMAZONAS,05,LUYA,12,OCALLI,05441,Sierra,17.0,806237.0,9310970.0,-78.23276,-6.22636,2010.0
010513,2018.0,01,AMAZONAS,05,LUYA,13,OCUMAL,05450,Sierra,17.0,814471.0,9297398.0,-78.15775,-6.34859,2278.0
010514,2018.0,01,AMAZONAS,05,LUYA,14,PISUQUIA,05470,Sierra,17.0,823630.0,9277181.0,-78.07399,-6.53078,2108.0
010514,2018.0,01,AMAZONAS,05,LUYA,14,PISUQUIA,05467,Sierra,17.0,825064.0,9283677.0,-78.06139,-6.47202,2145.0
010514,2018.0,01,AMAZONAS,05,LUYA,14,PISUQUIA,05466,Sierra,17.0,825470.0,9285232.0,-78.0578,-6.45795,2736.0
010514,2018.0,01,AMAZONAS,05,LUYA,14,PISUQUIA,05469,Sierra,17.0,829809.0,9281822.0,-78.01843,-6.48853,3300.0
010514,2018.0,01,AMAZONAS,05,LUYA,14,PISUQUIA,05463,Sierra,17.0,818638.0,9283176.0,-78.1194,-6.47687,1958.0
010514,2018.0,01,AMAZONAS,05,LUYA,14,PISUQUIA,05465,Sierra,17.0,828051.0,9286042.0,-78.03453,-6.4505,3520.0
010515,2018.0,01,AMAZONAS,05,LUYA,15,PROVIDENCIA,05446,Sierra,17.0,801098.0,9300689.0,-78.27868,-6.3195,2155.0
010515,2018.0,01,AMAZONAS,05,LUYA,15,PROVIDENCIA,05445,Sierra,17.0,797051.0,9304394.0,-78.3154,-6.28621,2031.0
010516,2018.0,01,AMAZONAS,05,LUYA,16,SAN CRISTOBAL,05424,Sierra,18.0,171934.0,9323945.0,-77.96367,-6.10808,2470.0
010518,2018.0,01,AMAZONAS,05,LUYA,18,SAN JERONIMO,05422,Sierra,17.0,832087.0,9332338.0,-78.00046,-6.03205,2623.0
010518,2018.0,01,AMAZONAS,05,LUYA,18,SAN JERONIMO,05421,Sierra,17.0,819955.0,9339767.0,-78.1103,-5.96553,2116.0
010521,2018.0,01,AMAZONAS,05,LUYA,21,SANTO TOMAS,05482,Sierra,18.0,177021.0,9267699.0,-77.92062,-6.61648,3449.0
010521,2018.0,01,AMAZONAS,05,LUYA,21,SANTO TOMAS,05481,Sierra,18.0,177443.0,9271534.0,-77.91661,-6.58185,3154.0
010521,2018.0,01,AMAZONAS,05,LUYA,21,SANTO TOMAS,05478,Sierra,18.0,183059.0,9276119.0,-77.86563,-6.54072,2723.0
010501,2018.0,01,AMAZONAS,05,LUYA,01,LAMUD,05425,Sierra,18.0,169128.0,9321936.0,-77.98909,-6.12608,2847.0
010520,2018.0,01,AMAZONAS,05,LUYA,20,SANTA CATALINA,05419,Sierra,17.0,818774.0,9329094.0,-78.12045,-6.06201,2061.0
010502,2018.0,01,AMAZONAS,05,LUYA,02,CAMPORREDONDO,05410,Sierra,17.0,798239.0,9309217.0,-78.3049,-6.24258,1550.0
010502,2018.0,01,AMAZONAS,05,LUYA,02,CAMPORREDONDO,05405,Sierra,17.0,794050.0,9314006.0,-78.34294,-6.1995,1295.0
010502,2018.0,01,AMAZONAS,05,LUYA,02,CAMPORREDONDO,05402,Sierra,17.0,789750.0,9315552.0,-78.38184,-6.18572,1509.0
010502,2018.0,01,AMAZONAS,05,LUYA,02,CAMPORREDONDO,05400,Sierra,17.0,795279.0,9322642.0,-78.33224,-6.1214,1855.0
010504,2018.0,01,AMAZONAS,05,LUYA,04,COLCAMAR,05453,Sierra,17.0,826705.0,9303777.0,-78.04761,-6.29035,2766.0
010505,2018.0,01,AMAZONAS,05,LUYA,05,CONILA,05413,Sierra,17.0,817471.0,9318291.0,-78.13169,-6.15968,2679.0
010601,2018.0,01,AMAZONAS,06,RODRIGUEZ DE MENDOZA,01,SAN NICOLAS,05548,Selva,18.0,231407.0,9293569.0,-77.42803,-6.38531,2157.0
010603,2018.0,01,AMAZONAS,06,RODRIGUEZ DE MENDOZA,03,COCHAMAL,05535,Selva,18.0,205126.0,9293338.0,-77.66545,-6.38622,1909.0
010609,2018.0,01,AMAZONAS,06,RODRIGUEZ DE MENDOZA,09,OMIA,05594,Selva,18.0,232552.0,9287402.0,-77.41795,-6.4411,1465.0
010609,2018.0,01,AMAZONAS,06,RODRIGUEZ DE MENDOZA,09,OMIA,05584,Selva,18.0,242655.0,9290839.0,-77.32652,-6.41045,2072.0
010609,2018.0,01,AMAZONAS,06,RODRIGUEZ DE MENDOZA,09,OMIA,05576,Selva,18.0,242585.0,9294719.0,-77.327,-6.37538,2275.0
010312,2018.0,01,AMAZONAS,03,BONGARA,12,YAMBRASBAMBA,05363,Selva,18.0,174128.0,9379313.0,-77.94124,-5.60797,1886.0
010305,2018.0,01,AMAZONAS,03,BONGARA,05,CUISPES,05384,Sierra,18.0,175617.0,9348279.0,-77.92925,-5.88841,2052.0
010301,2018.0,01,AMAZONAS,03,BONGARA,01,JUMBILLA,05381,Sierra,18.0,185820.0,9350576.0,-77.83708,-5.86814,2037.0
010306,2018.0,01,AMAZONAS,03,BONGARA,06,FLORIDA,05374,Sierra,18.0,172139.0,9351626.0,-77.96047,-5.85801,2094.0
010306,2018.0,01,AMAZONAS,03,BONGARA,06,FLORIDA,05370,Sierra,18.0,174257.0,9356781.0,-77.94112,-5.81154,2287.0
010312,2018.0,01,AMAZONAS,03,BONGARA,12,YAMBRASBAMBA,05366,Selva,18.0,186590.0,9365336.0,-77.82948,-5.73481,2366.0
010401,2018.0,01,AMAZONAS,04,CONDORCANQUI,01,NIEVA,05072,Selva,18.0,196583.0,9496176.0,-77.73428,-4.55296,199.0
010402,2018.0,01,AMAZONAS,04,CONDORCANQUI,02,EL CENEPA,05038,Selva,17.0,781660.0,9538411.0,-78.46294,-4.17196,1081.0
010403,2018.0,01,AMAZONAS,04,CONDORCANQUI,03,RIO SANTIAGO,05057,Selva,18.0,192070.0,9558206.0,-77.7729,-3.99229,217.0
010403,2018.0,01,AMAZONAS,04,CONDORCANQUI,03,RIO SANTIAGO,05056,Selva,17.0,831480.0,9559073.0,-78.01525,-3.98371,1205.0
010403,2018.0,01,AMAZONAS,04,CONDORCANQUI,03,RIO SANTIAGO,05049,Selva,18.0,180162.0,9605230.0,-77.87863,-3.56703,336.0
010403,2018.0,01,AMAZONAS,04,CONDORCANQUI,03,RIO SANTIAGO,05050,Selva,17.0,830172.0,9598027.0,-78.02823,-3.63182,332.0
010403,2018.0,01,AMAZONAS,04,CONDORCANQUI,03,RIO SANTIAGO,05046,Selva,18.0,179040.0,9652966.0,-77.88745,-3.13569,233.0
010120,2018.0,01,AMAZONAS,01,CHACHAPOYAS,20,SOLOCO,05505,Sierra,18.0,197243.0,9304375.0,-77.73613,-6.28612,2942.0
010202,2018.0,01,AMAZONAS,02,BAGUA,02,ARAMANGO,05162,Selva,17.0,782791.0,9390288.0,-78.44775,-5.51061,968.0
010119,2018.0,01,AMAZONAS,01,CHACHAPOYAS,19,SAN ISIDRO DE MAINO,05509,Sierra,18.0,187711.0,9296765.0,-77.82257,-6.35442,3002.0
010205,2018.0,01,AMAZONAS,02,BAGUA,05,IMAZA,05140,Selva,17.0,795529.0,9417485.0,-78.33394,-5.26434,989.0
010205,2018.0,01,AMAZONAS,02,BAGUA,05,IMAZA,05136,Selva,17.0,792489.0,9424808.0,-78.36162,-5.19827,322.0
010102,2018.0,01,AMAZONAS,01,CHACHAPOYAS,02,ASUNCION,05485,Sierra,18.0,196295.0,9336463.0,-77.7432,-5.99613,2778.0
010103,2018.0,01,AMAZONAS,01,CHACHAPOYAS,03,BALSAS,05527,Sierra,18.0,175776.0,9247214.0,-77.93298,-6.80147,2764.0
010101,2018.0,01,AMAZONAS,01,CHACHAPOYAS,01,CHACHAPOYAS,05494,Sierra,18.0,180713.0,9309128.0,-77.88516,-6.24238,2157.0
010105,2018.0,01,AMAZONAS,01,CHACHAPOYAS,05,CHILIQUIN,05491,Sierra,18.0,196736.0,9324532.0,-77.73976,-6.10396,2814.0
010106,2018.0,01,AMAZONAS,01,CHACHAPOYAS,06,CHUQUIBAMBA,05534,Sierra,18.0,191440.0,9232325.0,-77.79218,-6.93684,3919.0
010106,2018.0,01,AMAZONAS,01,CHACHAPOYAS,06,CHUQUIBAMBA,05530,Sierra,18.0,174268.0,9234050.0,-77.94734,-6.92031,2363.0
010106,2018.0,01,AMAZONAS,01,CHACHAPOYAS,06,CHUQUIBAMBA,05532,Sierra,18.0,185585.0,9233233.0,-77.84508,-6.92832,3207.0
010110,2018.0,01,AMAZONAS,01,CHACHAPOYAS,10,LEIMEBAMBA,05526,Sierra,18.0,192201.0,9241537.0,-77.78482,-6.85364,3570.0
010110,2018.0,01,AMAZONAS,01,CHACHAPOYAS,10,LEIMEBAMBA,05524,Sierra,18.0,193899.0,9257208.0,-77.76865,-6.71214,3058.0
010110,2018.0,01,AMAZONAS,01,CHACHAPOYAS,10,LEIMEBAMBA,05523,Sierra,18.0,192829.0,9261417.0,-77.77811,-6.67406,2647.0
010111,2018.0,01,AMAZONAS,01,CHACHAPOYAS,11,LEVANTO,05507,Sierra,18.0,177397.0,9300658.0,-77.91552,-6.31873,2545.0
010114,2018.0,01,AMAZONAS,01,CHACHAPOYAS,14,MOLINOPAMPA,05499,Sierra,18.0,211966.0,9307672.0,-77.60301,-6.257,2888.0
010120,2018.0,01,AMAZONAS,01,CHACHAPOYAS,20,SOLOCO,05506,Sierra,18.0,196771.0,9298286.0,-77.74067,-6.34112,2982.0
010120,2018.0,01,AMAZONAS,01,CHACHAPOYAS,20,SOLOCO,05504,Sierra,18.0,193262.0,9302585.0,-77.77216,-6.3021,3052.0
010205,2018.0,01,AMAZONAS,02,BAGUA,05,IMAZA,05139,Selva,17.0,800091.0,9422015.0,-78.29298,-5.22322,383.0
010205,2018.0,01,AMAZONAS,02,BAGUA,05,IMAZA,05131,Selva,17.0,805189.0,9433660.0,-78.24749,-5.1178,355.0
010205,2018.0,01,AMAZONAS,02,BAGUA,05,IMAZA,05125,Selva,17.0,793167.0,9443770.0,-78.35621,-5.02689,408.0
010205,2018.0,01,AMAZONAS,02,BAGUA,05,IMAZA,05120,Selva,17.0,805283.0,9458740.0,-78.24759,-4.89117,678.0
010205,2018.0,01,AMAZONAS,02,BAGUA,05,IMAZA,05114,Selva,17.0,771570.0,9468477.0,-78.55166,-4.80434,993.0
010205,2018.0,01,AMAZONAS,02,BAGUA,05,IMAZA,05107,Selva,17.0,815561.0,9467278.0,-78.15532,-4.81364,367.0
010204,2018.0,01,AMAZONAS,02,BAGUA,04,EL PARCO,05174,Selva,17.0,779591.0,9379227.0,-78.47618,-5.6107,611.0
010202,2018.0,01,AMAZONAS,02,BAGUA,02,ARAMANGO,05145,Selva,17.0,777977.0,9420093.0,-78.49226,-5.24142,865.0
010203,2018.0,01,AMAZONAS,02,BAGUA,03,COPALLIN,05198,Selva,17.0,783789.0,9371978.0,-78.43803,-5.67605,561.0
021801,2018.0,02,ANCASH,18,SANTA,01,CHIMBOTE,08250,Costa,17.0,766007.0,9009183.0,-78.58085,-8.95559,61.0
021801,2018.0,02,ANCASH,18,SANTA,01,CHIMBOTE,08258,Costa,17.0,776634.0,9005464.0,-78.48403,-8.98855,184.0
021801,2018.0,02,ANCASH,18,SANTA,01,CHIMBOTE,08260,Costa,17.0,770457.0,9003549.0,-78.54006,-9.00624,69.0
021801,2018.0,02,ANCASH,18,SANTA,01,CHIMBOTE,08263,Costa,17.0,763876.0,8998279.0,-78.59957,-9.05426,10.0
021801,2018.0,02,ANCASH,18,SANTA,01,CHIMBOTE,08264,Costa,17.0,770560.0,9000716.0,-78.53894,-9.03184,55.0
021801,2018.0,02,ANCASH,18,SANTA,01,CHIMBOTE,08266,Costa,17.0,773388.0,8997907.0,-78.51307,-9.05705,151.0
021804,2018.0,02,ANCASH,18,SANTA,04,MACATE,08276,Sierra,17.0,824626.0,9023678.0,-78.04924,-8.82079,3388.0
021807,2018.0,02,ANCASH,18,SANTA,07,SAMANCO,08313,Costa,17.0,778554.0,8977875.0,-78.46482,-9.23773,278.0
021808,2018.0,02,ANCASH,18,SANTA,08,SANTA,08228,Costa,17.0,762742.0,9007852.0,-78.61044,-8.96781,25.0
021809,2018.0,02,ANCASH,18,SANTA,09,NUEVO CHIMBOTE,08304,Costa,17.0,778186.0,8997098.0,-78.4694,-9.06405,219.0
021809,2018.0,02,ANCASH,18,SANTA,09,NUEVO CHIMBOTE,08309,Costa,17.0,777711.0,8990424.0,-78.47329,-9.12439,231.0
020801,2018.0,02,ANCASH,08,CASMA,01,CASMA,08706,Costa,17.0,799858.0,8938249.0,-78.26826,-9.59431,304.0
020802,2018.0,02,ANCASH,08,CASMA,02,BUENA VISTA ALTA,08710,Costa,17.0,808479.0,8967923.0,-78.19197,-9.32561,469.0
020804,2018.0,02,ANCASH,08,CASMA,04,YAUTAN,08720,Costa,17.0,826811.0,8946893.0,-78.02362,-9.51421,653.0
020204,2018.0,02,ANCASH,02,AIJA,04,LA MERCED,09476,Sierra,18.0,217455.0,8924744.0,-77.57505,-9.71755,4147.0
020101,2018.0,02,ANCASH,01,HUARAZ,01,HUARAZ,08938,Sierra,18.0,223229.0,8938917.0,-77.52151,-9.58988,3134.0
020101,2018.0,02,ANCASH,01,HUARAZ,01,HUARAZ,08918,Sierra,18.0,223009.0,8941120.0,-77.52336,-9.56995,3352.0
020102,2018.0,02,ANCASH,01,HUARAZ,02,COCHABAMBA,08727,Sierra,18.0,187888.0,8954006.0,-77.8421,-9.45108,3979.0
020105,2018.0,02,ANCASH,01,HUARAZ,05,INDEPENDENCIA,08861,Sierra,18.0,219079.0,8944189.0,-77.55894,-9.54196,3401.0
020105,2018.0,02,ANCASH,01,HUARAZ,05,INDEPENDENCIA,08856,Sierra,18.0,216509.0,8947120.0,-77.58214,-9.5153,3909.0
020105,2018.0,02,ANCASH,01,HUARAZ,05,INDEPENDENCIA,08819,Sierra,18.0,223277.0,8948805.0,-77.52042,-9.50053,3151.0
020105,2018.0,02,ANCASH,01,HUARAZ,05,INDEPENDENCIA,08809,Sierra,18.0,220953.0,8951298.0,-77.5414,-9.47785,2997.0
020106,2018.0,02,ANCASH,01,HUARAZ,06,JANGAS,08756,Sierra,18.0,217089.0,8955480.0,-77.57629,-9.43981,3529.0
020106,2018.0,02,ANCASH,01,HUARAZ,06,JANGAS,08754,Sierra,18.0,217732.0,8956468.0,-77.57037,-9.43092,3198.0
020108,2018.0,02,ANCASH,01,HUARAZ,08,OLLEROS,08972,Sierra,18.0,229086.0,8931032.0,-77.46871,-9.66151,3552.0
020108,2018.0,02,ANCASH,01,HUARAZ,08,OLLEROS,08960,Sierra,18.0,235947.0,8938206.0,-77.40576,-9.59712,4351.0
020110,2018.0,02,ANCASH,01,HUARAZ,10,PARIACOTO,08735,Sierra,18.0,180667.0,8945410.0,-77.90845,-9.52819,1296.0
020111,2018.0,02,ANCASH,01,HUARAZ,11,PIRA,08873,Sierra,18.0,201422.0,8948640.0,-77.71934,-9.50053,4335.0
020111,2018.0,02,ANCASH,01,HUARAZ,11,PIRA,08874,Sierra,18.0,207085.0,8946380.0,-77.66796,-9.52134,4191.0
021101,2018.0,02,ANCASH,11,HUARMEY,01,HUARMEY,09491,Costa,18.0,181462.0,8879403.0,-77.90642,-10.12448,735.0
021101,2018.0,02,ANCASH,11,HUARMEY,01,HUARMEY,09492,Costa,18.0,177380.0,8887627.0,-77.94296,-10.04987,507.0
020608,2018.0,02,ANCASH,06,CARHUAZ,08,SAN MIGUEL DE ACO,09132,Sierra,18.0,221950.0,8963461.0,-77.53153,-9.36801,3530.0
020609,2018.0,02,ANCASH,06,CARHUAZ,09,SHILLA,09013,Sierra,18.0,212500.0,8979653.0,-77.61642,-9.22108,3160.0
020609,2018.0,02,ANCASH,06,CARHUAZ,09,SHILLA,09007,Sierra,18.0,212193.0,8979978.0,-77.61919,-9.21813,3138.0
020610,2018.0,02,ANCASH,06,CARHUAZ,10,TINCO,08989,Sierra,18.0,206042.0,8975305.0,-77.67545,-9.25994,2666.0
020610,2018.0,02,ANCASH,06,CARHUAZ,10,TINCO,08982,Sierra,18.0,206155.0,8976472.0,-77.67434,-9.2494,2731.0
020611,2018.0,02,ANCASH,06,CARHUAZ,11,YUNGAR,09111,Sierra,18.0,214539.0,8961185.0,-77.59911,-9.38808,3006.0
020611,2018.0,02,ANCASH,06,CARHUAZ,11,YUNGAR,09107,Sierra,18.0,215076.0,8962228.0,-77.59415,-9.3787,2855.0
020602,2018.0,02,ANCASH,06,CARHUAZ,02,ACOPAMPA,09067,Sierra,18.0,211909.0,8973295.0,-77.62223,-9.27849,2946.0
020601,2018.0,02,ANCASH,06,CARHUAZ,01,CARHUAZ,09045,Sierra,18.0,210543.0,8974121.0,-77.63459,-9.27094,2897.0
020603,2018.0,02,ANCASH,06,CARHUAZ,03,AMASHCA,08995,Sierra,18.0,210772.0,8981042.0,-77.63204,-9.20841,3345.0
020605,2018.0,02,ANCASH,06,CARHUAZ,05,ATAQUERO,08978,Sierra,18.0,202213.0,8975498.0,-77.71025,-9.25793,3164.0
020606,2018.0,02,ANCASH,06,CARHUAZ,06,MARCARA,09086,Sierra,18.0,214066.0,8967983.0,-77.60296,-9.32663,2718.0
020606,2018.0,02,ANCASH,06,CARHUAZ,06,MARCARA,09093,Sierra,18.0,221520.0,8966199.0,-77.53526,-9.34324,3313.0
020606,2018.0,02,ANCASH,06,CARHUAZ,06,MARCARA,09089,Sierra,18.0,219713.0,8968207.0,-77.55157,-9.32498,3107.0
022001,2018.0,02,ANCASH,20,YUNGAY,01,YUNGAY,08594,Sierra,18.0,200291.0,8988523.0,-77.72684,-9.14012,2977.0
022003,2018.0,02,ANCASH,20,YUNGAY,03,MANCOS,08652,Sierra,18.0,207639.0,8982903.0,-77.66041,-9.1914,3220.0
022003,2018.0,02,ANCASH,20,YUNGAY,03,MANCOS,08638,Sierra,18.0,203165.0,8984106.0,-77.70101,-9.18022,2813.0
022005,2018.0,02,ANCASH,20,YUNGAY,05,QUILLO,08692,Sierra,18.0,177584.0,8966017.0,-77.93493,-9.34181,3736.0
022005,2018.0,02,ANCASH,20,YUNGAY,05,QUILLO,08694,Sierra,18.0,173432.0,8966720.0,-77.97264,-9.33514,2400.0
022005,2018.0,02,ANCASH,20,YUNGAY,05,QUILLO,08683,Sierra,18.0,175884.0,8974563.0,-77.94975,-9.26448,4135.0
022006,2018.0,02,ANCASH,20,YUNGAY,06,RANRAHIRCA,08630,Sierra,18.0,204602.0,8985536.0,-77.68784,-9.1674,3079.0
022006,2018.0,02,ANCASH,20,YUNGAY,06,RANRAHIRCA,08623,Sierra,18.0,205179.0,8987261.0,-77.68248,-9.15185,3224.0
022007,2018.0,02,ANCASH,20,YUNGAY,07,SHUPLUY,08669,Sierra,18.0,201526.0,8978118.0,-77.71632,-9.23421,2819.0
021206,2018.0,02,ANCASH,12,HUAYLAS,06,PAMPAROMAS,08365,Sierra,17.0,825851.0,8988966.0,-78.03557,-9.13425,2138.0
021207,2018.0,02,ANCASH,12,HUAYLAS,07,PUEBLO LIBRE,08425,Sierra,18.0,192585.0,8984524.0,-77.79717,-9.17571,3224.0
021207,2018.0,02,ANCASH,12,HUAYLAS,07,PUEBLO LIBRE,08421,Sierra,18.0,192714.0,8987007.0,-77.79582,-9.15329,3067.0
021001,2018.0,02,ANCASH,10,HUARI,01,HUARI,09274,Sierra,18.0,262349.0,8965659.0,-77.16379,-9.35058,2936.0
021002,2018.0,02,ANCASH,10,HUARI,02,ANRA,09414,Sierra,18.0,287869.0,8979309.0,-76.93085,-9.22853,3242.0
021003,2018.0,02,ANCASH,10,HUARI,03,CAJAY,09281,Sierra,18.0,269866.0,8976559.0,-77.0948,-9.25246,3761.0
021003,2018.0,02,ANCASH,10,HUARI,03,CAJAY,09285,Sierra,18.0,262552.0,8969359.0,-77.16174,-9.31715,3166.0
021004,2018.0,02,ANCASH,10,HUARI,04,CHAVIN DE HUANTAR,09324,Sierra,18.0,252525.0,8944245.0,-77.25445,-9.54356,4493.0
021004,2018.0,02,ANCASH,10,HUARI,04,CHAVIN DE HUANTAR,09339,Sierra,18.0,251565.0,8939276.0,-77.26349,-9.58841,4569.0
021004,2018.0,02,ANCASH,10,HUARI,04,CHAVIN DE HUANTAR,09342,Sierra,18.0,258421.0,8933069.0,-77.20141,-9.64491,3369.0
021005,2018.0,02,ANCASH,10,HUARI,05,HUACACHI,09410,Sierra,18.0,289740.0,8968145.0,-76.91438,-9.32954,4180.0
021007,2018.0,02,ANCASH,10,HUARI,07,HUACHIS,09304,Sierra,18.0,268448.0,8961259.0,-77.10853,-9.39068,3254.0
021008,2018.0,02,ANCASH,10,HUARI,08,HUANTAR,09310,Sierra,18.0,252666.0,8955917.0,-77.25247,-9.43808,4286.0
021008,2018.0,02,ANCASH,10,HUARI,08,HUANTAR,09318,Sierra,18.0,262598.0,8953238.0,-77.16222,-9.46286,3057.0
021014,2018.0,02,ANCASH,10,HUARI,14,SAN MARCOS,09354,Sierra,18.0,266682.0,8945914.0,-77.12545,-9.52929,3227.0
021014,2018.0,02,ANCASH,10,HUARI,14,SAN MARCOS,09375,Sierra,18.0,260492.0,8934344.0,-77.18248,-9.6335,4063.0
021001,2018.0,02,ANCASH,10,HUARI,01,HUARI,09273,Sierra,18.0,261178.0,8964525.0,-77.17451,-9.36076,3302.0
021603,2018.0,02,ANCASH,16,POMABAMBA,03,PAROBAMBA,08431,Sierra,18.0,238755.0,9054792.0,-77.37326,-8.54368,3319.0
021604,2018.0,02,ANCASH,16,POMABAMBA,04,QUINUABAMBA,08442,Sierra,18.0,247334.0,9039281.0,-77.29622,-8.68435,2735.0
021302,2018.0,02,ANCASH,13,MARISCAL LUZURIAGA,02,CASCA,08496,Sierra,18.0,234687.0,9021522.0,-77.41212,-8.84412,3186.0
021306,2018.0,02,ANCASH,13,MARISCAL LUZURIAGA,06,LLUMPA,08540,Sierra,18.0,240391.0,9010816.0,-77.36091,-8.94121,3037.0
021306,2018.0,02,ANCASH,13,MARISCAL LUZURIAGA,06,LLUMPA,08551,Sierra,18.0,225808.0,9004458.0,-77.49384,-8.9978,3689.0
021307,2018.0,02,ANCASH,13,MARISCAL LUZURIAGA,07,LUCMA,08537,Sierra,18.0,238488.0,9013161.0,-77.37806,-8.9199,3108.0
022001,2018.0,02,ANCASH,20,YUNGAY,01,YUNGAY,08581,Sierra,18.0,196264.0,8991088.0,-77.76327,-9.11667,2479.0
022001,2018.0,02,ANCASH,20,YUNGAY,01,YUNGAY,08577,Sierra,18.0,201828.0,8994798.0,-77.71243,-9.08353,3370.0
022008,2018.0,02,ANCASH,20,YUNGAY,08,YANAMA,08568,Sierra,18.0,233942.0,8999295.0,-77.42021,-9.04494,3786.0
021201,2018.0,02,ANCASH,12,HUAYLAS,01,CARAZ,08397,Sierra,18.0,189445.0,9002246.0,-77.82446,-9.0154,2216.0
021201,2018.0,02,ANCASH,12,HUAYLAS,01,CARAZ,08384,Sierra,18.0,191289.0,9003700.0,-77.80761,-9.00238,2410.0
021202,2018.0,02,ANCASH,12,HUAYLAS,02,HUALLANCA,08327,Sierra,18.0,184367.0,9023204.0,-77.86912,-8.82571,1751.0
021206,2018.0,02,ANCASH,12,HUAYLAS,06,PAMPAROMAS,08358,Sierra,18.0,173112.0,9001474.0,-77.97293,-9.02119,4108.0
021208,2018.0,02,ANCASH,12,HUAYLAS,08,SANTA CRUZ,08338,Sierra,18.0,189363.0,9009635.0,-77.82469,-8.94863,2572.0
020703,2018.0,02,ANCASH,07,CARLOS FERMIN FITZCARRALD,03,YAUYA,09204,Sierra,18.0,249498.0,9004098.0,-77.27851,-9.00245,3359.0
020701,2018.0,02,ANCASH,07,CARLOS FERMIN FITZCARRALD,01,SAN LUIS,09173,Sierra,18.0,242150.0,9000403.0,-77.34552,-9.03542,3047.0
020701,2018.0,02,ANCASH,07,CARLOS FERMIN FITZCARRALD,01,SAN LUIS,09181,Sierra,18.0,242773.0,8995048.0,-77.34018,-9.08385,2940.0
020402,2018.0,02,ANCASH,04,ASUNCION,02,ACOCHACA,09147,Sierra,18.0,236966.0,8991477.0,-77.39319,-9.11578,3524.0
020301,2018.0,02,ANCASH,03,ANTONIO RAYMONDI,01,LLAMELLIN,09227,Sierra,18.0,279117.0,8992948.0,-77.00978,-9.1048,3218.0
020504,2018.0,02,ANCASH,05,BOLOGNESI,04,AQUIA,09510,Sierra,18.0,260602.0,8891556.0,-77.18401,-10.02024,4981.0
020507,2018.0,02,ANCASH,05,BOLOGNESI,07,COLQUIOC,09536,Costa,18.0,221808.0,8857056.0,-77.54017,-10.32945,1806.0
021406,2018.0,02,ANCASH,14,OCROS,06,CONGAS,09540,Sierra,18.0,236900.0,8856576.0,-77.40248,-10.33484,3924.0
021701,2018.0,02,ANCASH,17,RECUAY,01,RECUAY,09443,Sierra,18.0,225408.0,8922198.0,-77.50279,-9.74109,4352.0
021701,2018.0,02,ANCASH,17,RECUAY,01,RECUAY,09438,Sierra,18.0,232889.0,8927750.0,-77.43428,-9.69142,3688.0
021710,2018.0,02,ANCASH,17,RECUAY,10,TICAPAMPA,09445,Sierra,18.0,233565.0,8919226.0,-77.42869,-9.76848,3571.0
020901,2018.0,02,ANCASH,09,CORONGO,01,CORONGO,08215,Sierra,18.0,182320.0,9052408.0,-77.88569,-8.56175,3526.0
021908,2018.0,02,ANCASH,19,SIHUAS,08,RAGASH,08171,Sierra,18.0,207216.0,9056625.0,-77.65946,-8.52526,3108.0
021501,2018.0,02,ANCASH,15,PALLASCA,01,CABANA,08126,Sierra,17.0,826674.0,9071233.0,-78.03399,-8.39108,2822.0
021501,2018.0,02,ANCASH,15,PALLASCA,01,CABANA,08127,Sierra,17.0,826610.0,9069536.0,-78.03445,-8.40641,2489.0
021503,2018.0,02,ANCASH,15,PALLASCA,03,CONCHUCOS,08097,Sierra,18.0,211685.0,9096836.0,-77.61647,-8.1622,2388.0
021510,2018.0,02,ANCASH,15,PALLASCA,10,SANTA ROSA,08140,Sierra,17.0,821446.0,9058216.0,-78.08052,-8.50902,1967.0
021904,2018.0,02,ANCASH,19,SIHUAS,04,CASHAPAMPA,08189,Sierra,18.0,206946.0,9047245.0,-77.6625,-8.60999,3799.0
021906,2018.0,02,ANCASH,19,SIHUAS,06,HUAYLLABAMBA,08163,Sierra,18.0,217562.0,9053999.0,-77.56571,-8.54962,3563.0
030101,2018.0,03,APURIMAC,01,ABANCAY,01,ABANCAY,15037,Sierra,18.0,725475.0,8490063.0,-72.91562,-13.64955,2207.0
030101,2018.0,03,APURIMAC,01,ABANCAY,01,ABANCAY,15036,Sierra,18.0,724161.0,8490800.0,-72.92782,-13.643,2341.0
030106,2018.0,03,APURIMAC,01,ABANCAY,06,LAMBRAMA,15058,Sierra,18.0,740556.0,8465523.0,-72.77418,-13.87007,3292.0
030106,2018.0,03,APURIMAC,01,ABANCAY,06,LAMBRAMA,15056,Sierra,18.0,742365.0,8467956.0,-72.75766,-13.84793,3714.0
030107,2018.0,03,APURIMAC,01,ABANCAY,07,PICHIRHUA,15069,Sierra,18.0,703779.0,8469903.0,-73.11465,-13.83335,3663.0
030107,2018.0,03,APURIMAC,01,ABANCAY,07,PICHIRHUA,15063,Sierra,18.0,719204.0,8476693.0,-72.97253,-13.77085,3216.0
030107,2018.0,03,APURIMAC,01,ABANCAY,07,PICHIRHUA,15062,Sierra,18.0,720557.0,8480357.0,-72.96031,-13.73764,3185.0
030701,2018.0,03,APURIMAC,07,GRAU,01,CHUQUIBAMBILLA,15122,Sierra,18.0,741003.0,8437261.0,-72.76759,-14.12538,4444.0
030703,2018.0,03,APURIMAC,07,GRAU,03,GAMARRA,15088,Sierra,18.0,771867.0,8475135.0,-72.48559,-13.78044,3190.0
030703,2018.0,03,APURIMAC,07,GRAU,03,GAMARRA,15085,Sierra,18.0,760535.0,8475937.0,-72.5904,-13.77423,4105.0
030704,2018.0,03,APURIMAC,07,GRAU,04,HUAYLLATI,15095,Sierra,18.0,772072.0,8459432.0,-72.48217,-13.92227,3312.0
030709,2018.0,03,APURIMAC,07,GRAU,09,SAN ANTONIO,15129,Sierra,18.0,758731.0,8431332.0,-72.60291,-14.17736,3715.0
030713,2018.0,03,APURIMAC,07,GRAU,13,VIRUNDO,15135,Sierra,18.0,747757.0,8424509.0,-72.7039,-14.24,4482.0
030207,2018.0,03,APURIMAC,02,ANDAHUAYLAS,07,KISHUARA,14695,Sierra,18.0,701993.0,8480876.0,-73.13195,-13.7343,4324.0
030209,2018.0,03,APURIMAC,02,ANDAHUAYLAS,09,PACUCHA,14722,Sierra,18.0,687146.0,8492269.0,-73.26997,-13.63233,3360.0
030209,2018.0,03,APURIMAC,02,ANDAHUAYLAS,09,PACUCHA,14724,Sierra,18.0,690545.0,8491477.0,-73.23851,-13.63928,3520.0
030209,2018.0,03,APURIMAC,02,ANDAHUAYLAS,09,PACUCHA,14716,Sierra,18.0,678142.0,8493751.0,-73.35328,-13.61951,3471.0
030209,2018.0,03,APURIMAC,02,ANDAHUAYLAS,09,PACUCHA,14721,Sierra,18.0,686965.0,8493736.0,-73.27174,-13.61909,3476.0
030210,2018.0,03,APURIMAC,02,ANDAHUAYLAS,10,PAMPACHIRI,14914,Sierra,18.0,668794.0,8426124.0,-73.43555,-14.23132,3859.0
030212,2018.0,03,APURIMAC,02,ANDAHUAYLAS,12,SAN ANTONIO DE CACHI,14872,Sierra,18.0,640917.0,8475059.0,-73.69637,-13.79052,3513.0
030213,2018.0,03,APURIMAC,02,ANDAHUAYLAS,13,SAN JERONIMO,14762,Sierra,18.0,689878.0,8482953.0,-73.2441,-13.71636,4116.0
030213,2018.0,03,APURIMAC,02,ANDAHUAYLAS,13,SAN JERONIMO,14747,Sierra,18.0,683972.0,8487209.0,-73.29898,-13.67827,3698.0
030213,2018.0,03,APURIMAC,02,ANDAHUAYLAS,13,SAN JERONIMO,14755,Sierra,18.0,690351.0,8489153.0,-73.24014,-13.66029,3844.0
030213,2018.0,03,APURIMAC,02,ANDAHUAYLAS,13,SAN JERONIMO,14734,Sierra,18.0,678266.0,8490188.0,-73.35191,-13.6517,3197.0
030213,2018.0,03,APURIMAC,02,ANDAHUAYLAS,13,SAN JERONIMO,14751,Sierra,18.0,685140.0,8489619.0,-73.28833,-13.65642,3488.0
030215,2018.0,03,APURIMAC,02,ANDAHUAYLAS,15,SANTA MARIA DE CHICMO,14870,Sierra,18.0,657912.0,8485940.0,-73.53979,-13.69128,3858.0
030215,2018.0,03,APURIMAC,02,ANDAHUAYLAS,15,SANTA MARIA DE CHICMO,14857,Sierra,18.0,660670.0,8487339.0,-73.51438,-13.67848,4027.0
030215,2018.0,03,APURIMAC,02,ANDAHUAYLAS,15,SANTA MARIA DE CHICMO,14848,Sierra,18.0,663139.0,8489662.0,-73.49169,-13.65734,3275.0
030215,2018.0,03,APURIMAC,02,ANDAHUAYLAS,15,SANTA MARIA DE CHICMO,14842,Sierra,18.0,660489.0,8491006.0,-73.51626,-13.64534,3537.0
030216,2018.0,03,APURIMAC,02,ANDAHUAYLAS,16,TALAVERA,14838,Sierra,18.0,668653.0,8485185.0,-73.44046,-13.6975,3306.0
030216,2018.0,03,APURIMAC,02,ANDAHUAYLAS,16,TALAVERA,14829,Sierra,18.0,668586.0,8488896.0,-73.4413,-13.66396,2898.0
030216,2018.0,03,APURIMAC,02,ANDAHUAYLAS,16,TALAVERA,14825,Sierra,18.0,669679.0,8490807.0,-73.43131,-13.64662,2869.0
030216,2018.0,03,APURIMAC,02,ANDAHUAYLAS,16,TALAVERA,14823,Sierra,18.0,667160.0,8490884.0,-73.45459,-13.64607,2811.0
030216,2018.0,03,APURIMAC,02,ANDAHUAYLAS,16,TALAVERA,14820,Sierra,18.0,670834.0,8491919.0,-73.4207,-13.6365,3205.0
030218,2018.0,03,APURIMAC,02,ANDAHUAYLAS,18,TURPO,14896,Sierra,18.0,661133.0,8472292.0,-73.50924,-13.81446,3857.0
030204,2018.0,03,APURIMAC,02,ANDAHUAYLAS,04,HUANCARAMA,14678,Sierra,18.0,711595.0,8485578.0,-73.04354,-13.69113,3546.0
030205,2018.0,03,APURIMAC,02,ANDAHUAYLAS,05,HUANCARAY,14883,Sierra,18.0,658461.0,8472962.0,-73.53399,-13.80856,3704.0
030201,2018.0,03,APURIMAC,02,ANDAHUAYLAS,01,ANDAHUAYLAS,14799,Sierra,18.0,682047.0,8477015.0,-73.31611,-13.77053,4073.0
030201,2018.0,03,APURIMAC,02,ANDAHUAYLAS,01,ANDAHUAYLAS,14781,Sierra,18.0,674672.0,8487295.0,-73.38495,-13.67806,3150.0
030301,2018.0,03,APURIMAC,03,ANTABAMBA,01,ANTABAMBA,15243,Sierra,18.0,730486.0,8410168.0,-72.86265,-14.37107,3543.0
030301,2018.0,03,APURIMAC,03,ANTABAMBA,01,ANTABAMBA,15240,Sierra,18.0,728029.0,8411956.0,-72.88558,-14.35511,3510.0
030304,2018.0,03,APURIMAC,03,ANTABAMBA,04,JUAN ESPINOZA MEDRANO,15251,Sierra,18.0,724928.0,8401888.0,-72.91348,-14.44634,3489.0
030304,2018.0,03,APURIMAC,03,ANTABAMBA,04,JUAN ESPINOZA MEDRANO,15252,Sierra,18.0,727457.0,8384650.0,-72.88855,-14.60188,4661.0
030417,2018.0,03,APURIMAC,04,AYMARAES,17,YANACA,14956,Sierra,18.0,700275.0,8423543.0,-73.14369,-14.25255,3755.0
030401,2018.0,03,APURIMAC,04,AYMARAES,01,CHALHUANCA,14959,Sierra,18.0,687249.0,8415343.0,-73.26382,-14.32758,3503.0
030402,2018.0,03,APURIMAC,04,AYMARAES,02,CAPAYA,14939,Sierra,18.0,677999.0,8439921.0,-73.35116,-14.10605,4144.0
030405,2018.0,03,APURIMAC,04,AYMARAES,05,COLCABAMBA,14934,Sierra,18.0,695048.0,8451628.0,-73.19412,-13.99911,3152.0
030406,2018.0,03,APURIMAC,04,AYMARAES,06,COTARUSE,14970,Sierra,18.0,667708.0,8390399.0,-73.44338,-14.55428,4491.0
030409,2018.0,03,APURIMAC,04,AYMARAES,09,LUCRE,14919,Sierra,18.0,692710.0,8454065.0,-73.21593,-13.97725,3188.0
030412,2018.0,03,APURIMAC,04,AYMARAES,12,SAÑAYCA,14964,Sierra,18.0,676966.0,8411591.0,-73.35888,-14.36216,4003.0
030414,2018.0,03,APURIMAC,04,AYMARAES,14,TAPAIRIHUA,14948,Sierra,18.0,702034.0,8441632.0,-73.12873,-14.08896,3633.0
030415,2018.0,03,APURIMAC,04,AYMARAES,15,TINTAY,14927,Sierra,18.0,695409.0,8455901.0,-73.19107,-13.96047,2789.0
030501,2018.0,03,APURIMAC,05,COTABAMBAS,01,TAMBOBAMBA,15168,Sierra,18.0,792211.0,8446445.0,-72.29456,-14.03756,4031.0
030502,2018.0,03,APURIMAC,05,COTABAMBAS,02,COTABAMBAS,15142,Sierra,18.0,784960.0,8480118.0,-72.36509,-13.73416,3564.0
030503,2018.0,03,APURIMAC,05,COTABAMBAS,03,COYLLURQUI,15169,Sierra,18.0,778473.0,8473893.0,-72.42442,-13.79102,3807.0
030501,2018.0,03,APURIMAC,05,COTABAMBAS,01,TAMBOBAMBA,15165,Sierra,18.0,792942.0,8449824.0,-72.28816,-14.00697,3920.0
030501,2018.0,03,APURIMAC,05,COTABAMBAS,01,TAMBOBAMBA,15155,Sierra,18.0,805032.0,8456444.0,-72.17707,-13.94591,3271.0
030501,2018.0,03,APURIMAC,05,COTABAMBAS,01,TAMBOBAMBA,15148,Sierra,18.0,800767.0,8477539.0,-72.21877,-13.75584,3214.0
030504,2018.0,03,APURIMAC,05,COTABAMBAS,04,HAQUIRA,15218,Sierra,18.0,804601.0,8421536.0,-72.17718,-14.2612,4139.0
030504,2018.0,03,APURIMAC,05,COTABAMBAS,04,HAQUIRA,15209,Sierra,18.0,812045.0,8433655.0,-72.10963,-14.15094,3746.0
030505,2018.0,03,APURIMAC,05,COTABAMBAS,05,MARA,15203,Sierra,18.0,814258.0,8441784.0,-72.09009,-14.07728,3379.0
030506,2018.0,03,APURIMAC,05,COTABAMBAS,06,CHALLHUAHUACHO,15187,Sierra,18.0,796540.0,8441122.0,-72.25394,-14.08519,4231.0
030607,2018.0,03,APURIMAC,06,CHINCHEROS,07,URANMARCA,14631,Sierra,18.0,646943.0,8486746.0,-73.64125,-13.68457,3321.0
030104,2018.0,03,APURIMAC,01,ABANCAY,04,CURAHUASI,14995,Sierra,18.0,739365.0,8501577.0,-72.78825,-13.5444,3514.0
030104,2018.0,03,APURIMAC,01,ABANCAY,04,CURAHUASI,14992,Sierra,18.0,742101.0,8503177.0,-72.76312,-13.52973,3652.0
030105,2018.0,03,APURIMAC,01,ABANCAY,05,HUANIPACA,14983,Sierra,18.0,726629.0,8507997.0,-72.90638,-13.4874,2708.0
030105,2018.0,03,APURIMAC,01,ABANCAY,05,HUANIPACA,14976,Sierra,18.0,713021.0,8505351.0,-73.03184,-13.51233,3031.0
030104,2018.0,03,APURIMAC,01,ABANCAY,04,CURAHUASI,15021,Sierra,18.0,765354.0,8488967.0,-72.54708,-13.65608,3570.0
030207,2018.0,03,APURIMAC,02,ANDAHUAYLAS,07,KISHUARA,14684,Sierra,18.0,696084.0,8495733.0,-73.18761,-13.60044,2587.0
030207,2018.0,03,APURIMAC,02,ANDAHUAYLAS,07,KISHUARA,14683,Sierra,18.0,699590.0,8497452.0,-73.15534,-13.58466,3595.0
030207,2018.0,03,APURIMAC,02,ANDAHUAYLAS,07,KISHUARA,14682,Sierra,18.0,697158.0,8500941.0,-73.17804,-13.5533,2649.0
030209,2018.0,03,APURIMAC,02,ANDAHUAYLAS,09,PACUCHA,14713,Sierra,18.0,677463.0,8496162.0,-73.3597,-13.59775,3727.0
030209,2018.0,03,APURIMAC,02,ANDAHUAYLAS,09,PACUCHA,14701,Sierra,18.0,677985.0,8498486.0,-73.35502,-13.57671,3481.0
030216,2018.0,03,APURIMAC,02,ANDAHUAYLAS,16,TALAVERA,14815,Sierra,18.0,664033.0,8496990.0,-73.48385,-13.59106,3278.0
030216,2018.0,03,APURIMAC,02,ANDAHUAYLAS,16,TALAVERA,14812,Sierra,18.0,668715.0,8499975.0,-73.44076,-13.56381,2963.0
030219,2018.0,03,APURIMAC,02,ANDAHUAYLAS,19,KAQUIABAMBA,14654,Sierra,18.0,684926.0,8502796.0,-73.29117,-13.53733,3233.0
030202,2018.0,03,APURIMAC,02,ANDAHUAYLAS,02,ANDARAPA,14639,Sierra,18.0,678205.0,8505157.0,-73.3534,-13.51641,3038.0
030602,2018.0,03,APURIMAC,06,CHINCHEROS,02,ANCO_HUALLO,14606,Sierra,18.0,642463.0,8502401.0,-73.68345,-13.54327,3350.0
030602,2018.0,03,APURIMAC,06,CHINCHEROS,02,ANCO_HUALLO,14601,Sierra,18.0,645741.0,8503264.0,-73.65321,-13.53531,3552.0
030602,2018.0,03,APURIMAC,06,CHINCHEROS,02,ANCO_HUALLO,14603,Sierra,18.0,643089.0,8504370.0,-73.67776,-13.52545,3213.0
030602,2018.0,03,APURIMAC,06,CHINCHEROS,02,ANCO_HUALLO,14599,Sierra,18.0,642745.0,8507283.0,-73.68109,-13.49912,3933.0
030604,2018.0,03,APURIMAC,06,CHINCHEROS,04,HUACCANA,14549,Sierra,18.0,637638.0,8521857.0,-73.72896,-13.36762,3181.0
030605,2018.0,03,APURIMAC,06,CHINCHEROS,05,OCOBAMBA,14582,Sierra,18.0,658684.0,8503379.0,-73.53363,-13.5336,2719.0
030605,2018.0,03,APURIMAC,06,CHINCHEROS,05,OCOBAMBA,14581,Sierra,18.0,658721.0,8506250.0,-73.53345,-13.50765,2516.0
030606,2018.0,03,APURIMAC,06,CHINCHEROS,06,ONGOY,14570,Sierra,18.0,652016.0,8511936.0,-73.59569,-13.4566,3239.0
030606,2018.0,03,APURIMAC,06,CHINCHEROS,06,ONGOY,14564,Sierra,18.0,652591.0,8514702.0,-73.59052,-13.43157,3348.0
030606,2018.0,03,APURIMAC,06,CHINCHEROS,06,ONGOY,14565,Sierra,18.0,649731.0,8516445.0,-73.61702,-13.41596,2793.0
030606,2018.0,03,APURIMAC,06,CHINCHEROS,06,ONGOY,14567,Sierra,18.0,643152.0,8516544.0,-73.67778,-13.41539,3095.0
030606,2018.0,03,APURIMAC,06,CHINCHEROS,06,ONGOY,14558,Sierra,18.0,649975.0,8521855.0,-73.61506,-13.36704,2507.0
030608,2018.0,03,APURIMAC,06,CHINCHEROS,08,RANRACANCHA,14595,Sierra,18.0,650983.0,8502377.0,-73.60473,-13.54306,3599.0
040106,2018.0,04,AREQUIPA,01,AREQUIPA,06,CHIGUATA,18885,Sierra,19.0,247687.0,8186300.0,-71.36234,-16.39141,3264.0
040108,2018.0,04,AREQUIPA,01,AREQUIPA,08,LA JOYA,18947,Costa,19.0,197020.0,8175667.0,-71.83773,-16.48155,1529.0
040112,2018.0,04,AREQUIPA,01,AREQUIPA,12,PAUCARPATA,18891,Sierra,19.0,236474.0,8183069.0,-71.46762,-16.41939,2737.0
040113,2018.0,04,AREQUIPA,01,AREQUIPA,13,POCSI,18924,Sierra,19.0,243885.0,8173451.0,-71.39934,-16.50706,3014.0
040114,2018.0,04,AREQUIPA,01,AREQUIPA,14,POLOBAYA,18932,Sierra,19.0,246389.0,8167543.0,-71.37655,-16.56068,3081.0
040115,2018.0,04,AREQUIPA,01,AREQUIPA,15,QUEQUEÑA,18922,Sierra,19.0,238862.0,8169911.0,-71.44677,-16.53848,2816.0
040117,2018.0,04,AREQUIPA,01,AREQUIPA,17,SACHACA,18877,Sierra,19.0,224640.0,8180462.0,-71.57866,-16.44159,2245.0
040117,2018.0,04,AREQUIPA,01,AREQUIPA,17,SACHACA,18876,Sierra,19.0,225369.0,8181513.0,-71.57172,-16.43219,2222.0
040124,2018.0,04,AREQUIPA,01,AREQUIPA,24,UCHUMAYO,18858,Sierra,19.0,217054.0,8182591.0,-71.64939,-16.42149,2126.0
040125,2018.0,04,AREQUIPA,01,AREQUIPA,25,VITOR,18959,Costa,19.0,189312.0,8165663.0,-71.91121,-16.57088,1309.0
040125,2018.0,04,AREQUIPA,01,AREQUIPA,25,VITOR,18960,Costa,19.0,183504.0,8165723.0,-71.96557,-16.56957,1242.0
040125,2018.0,04,AREQUIPA,01,AREQUIPA,25,VITOR,18955,Costa,19.0,190336.0,8178510.0,-71.89989,-16.45503,1249.0
040128,2018.0,04,AREQUIPA,01,AREQUIPA,28,YURA,18840,Sierra,19.0,203108.0,8211360.0,-71.77621,-16.16003,3196.0
040128,2018.0,04,AREQUIPA,01,AREQUIPA,28,YURA,18839,Sierra,19.0,232986.0,8222174.0,-71.4958,-16.06582,4190.0
040129,2018.0,04,AREQUIPA,01,AREQUIPA,29,JOSE LUIS BUSTAMANTE Y RIVERO,18893,Sierra,19.0,230523.0,8181655.0,-71.52347,-16.43149,2349.0
040516,2018.0,04,AREQUIPA,05,CAYLLOMA,16,TAPAY,18669,Sierra,19.0,184432.0,8277367.0,-71.94202,-15.56174,3798.0
040517,2018.0,04,AREQUIPA,05,CAYLLOMA,17,TISCO,18710,Sierra,19.0,229196.0,8315968.0,-71.5208,-15.21827,4292.0
040517,2018.0,04,AREQUIPA,05,CAYLLOMA,17,TISCO,18706,Sierra,19.0,237974.0,8328450.0,-71.43785,-15.10642,4414.0
040518,2018.0,04,AREQUIPA,05,CAYLLOMA,18,TUTI,18703,Sierra,19.0,226178.0,8281366.0,-71.55268,-15.53047,3903.0
040519,2018.0,04,AREQUIPA,05,CAYLLOMA,19,YANQUE,18722,Sierra,19.0,214058.0,8267010.0,-71.66726,-15.65878,3440.0
040520,2018.0,04,AREQUIPA,05,CAYLLOMA,20,MAJES,18791,Sierra,18.0,799603.0,8185029.0,-72.19508,-16.39745,1326.0
040520,2018.0,04,AREQUIPA,05,CAYLLOMA,20,MAJES,18790,Sierra,18.0,801640.0,8186436.0,-72.17622,-16.38448,1367.0
040703,2018.0,04,AREQUIPA,07,ISLAY,03,DEAN VALDIVIA,18987,Costa,19.0,203264.0,8105804.0,-71.7885,-17.11313,46.0
040706,2018.0,04,AREQUIPA,07,ISLAY,06,PUNTA DE BOMBON,18995,Costa,19.0,203984.0,8098136.0,-71.78277,-17.18246,15.0
040706,2018.0,04,AREQUIPA,07,ISLAY,06,PUNTA DE BOMBON,18989,Costa,19.0,199261.0,8099923.0,-71.82689,-17.1657,14.0
040706,2018.0,04,AREQUIPA,07,ISLAY,06,PUNTA DE BOMBON,18991,Costa,19.0,201446.0,8100750.0,-71.80625,-17.15852,14.0
040706,2018.0,04,AREQUIPA,07,ISLAY,06,PUNTA DE BOMBON,18997,Costa,19.0,227191.0,8095896.0,-71.56505,-17.20557,453.0
040501,2018.0,04,AREQUIPA,05,CAYLLOMA,01,CHIVAY,18694,Sierra,19.0,227723.0,8273658.0,-71.53914,-15.60025,4651.0
040502,2018.0,04,AREQUIPA,05,CAYLLOMA,02,ACHOMA,18727,Sierra,19.0,211487.0,8266963.0,-71.69122,-15.65892,3451.0
040504,2018.0,04,AREQUIPA,05,CAYLLOMA,04,CALLALLI,18716,Sierra,19.0,240222.0,8273777.0,-71.42264,-15.6005,4107.0
040504,2018.0,04,AREQUIPA,05,CAYLLOMA,04,CALLALLI,18714,Sierra,19.0,257969.0,8278148.0,-71.2568,-15.56278,4667.0
040505,2018.0,04,AREQUIPA,05,CAYLLOMA,05,CAYLLOMA,18667,Sierra,19.0,212564.0,8309621.0,-71.67623,-15.27379,4565.0
040506,2018.0,04,AREQUIPA,05,CAYLLOMA,06,COPORAQUE,18689,Sierra,19.0,216409.0,8269576.0,-71.64505,-15.63588,3503.0
040506,2018.0,04,AREQUIPA,05,CAYLLOMA,06,COPORAQUE,18686,Sierra,19.0,214888.0,8276372.0,-71.65843,-15.57433,4597.0
040507,2018.0,04,AREQUIPA,05,CAYLLOMA,07,HUAMBO,18762,Sierra,18.0,801955.0,8257440.0,-72.18231,-15.74333,3678.0
040508,2018.0,04,AREQUIPA,05,CAYLLOMA,08,HUANCA,18735,Sierra,19.0,191894.0,8225718.0,-71.8791,-16.029,3108.0
040510,2018.0,04,AREQUIPA,05,CAYLLOMA,10,LARI,18679,Sierra,19.0,202387.0,8270890.0,-71.77556,-15.62239,3339.0
040511,2018.0,04,AREQUIPA,05,CAYLLOMA,11,LLUTA,18773,Sierra,19.0,185359.0,8221391.0,-71.94069,-16.06724,3232.0
040511,2018.0,04,AREQUIPA,05,CAYLLOMA,11,LLUTA,18774,Sierra,18.0,817439.0,8217799.0,-72.03271,-16.09931,2922.0
040511,2018.0,04,AREQUIPA,05,CAYLLOMA,11,LLUTA,18770,Sierra,19.0,189407.0,8227832.0,-71.90205,-16.0096,3204.0
040511,2018.0,04,AREQUIPA,05,CAYLLOMA,11,LLUTA,18765,Sierra,18.0,805874.0,8229995.0,-72.14229,-15.99066,3480.0
040511,2018.0,04,AREQUIPA,05,CAYLLOMA,11,LLUTA,18764,Sierra,19.0,187005.0,8243205.0,-71.92246,-15.87049,4285.0
040512,2018.0,04,AREQUIPA,05,CAYLLOMA,12,MACA,18746,Sierra,19.0,200180.0,8256126.0,-71.79794,-15.75545,4823.0
040514,2018.0,04,AREQUIPA,05,CAYLLOMA,14,SAN ANTONIO DE CHUCA,18718,Sierra,19.0,283784.0,8248396.0,-71.01885,-15.83392,4500.0
040520,2018.0,04,AREQUIPA,05,CAYLLOMA,20,MAJES,18779,Sierra,18.0,802644.0,8192344.0,-72.1676,-16.33102,1495.0
040520,2018.0,04,AREQUIPA,05,CAYLLOMA,20,MAJES,18786,Sierra,18.0,797971.0,8193647.0,-72.21146,-16.31984,1453.0
040520,2018.0,04,AREQUIPA,05,CAYLLOMA,20,MAJES,18782,Sierra,18.0,796478.0,8197813.0,-72.22595,-16.2824,1496.0
040119,2018.0,04,AREQUIPA,01,AREQUIPA,19,SAN JUAN DE TARUCANI,18844,Sierra,19.0,275813.0,8208487.0,-71.09701,-16.19376,4614.0
040201,2018.0,04,AREQUIPA,02,CAMANA,01,CAMANA,18832,Costa,18.0,743319.0,8159929.0,-72.71902,-16.63054,8.0
040201,2018.0,04,AREQUIPA,02,CAMANA,01,CAMANA,18829,Costa,18.0,743646.0,8161446.0,-72.71612,-16.61681,18.0
040206,2018.0,04,AREQUIPA,02,CAMANA,06,OCOÑA,18809,Costa,18.0,699122.0,8183719.0,-73.13524,-16.41974,565.0
040206,2018.0,04,AREQUIPA,02,CAMANA,06,OCOÑA,18811,Costa,18.0,721449.0,8198914.0,-72.92768,-16.2805,1482.0
040401,2018.0,04,AREQUIPA,04,CASTILLA,01,APLAO,18649,Sierra,18.0,768720.0,8236931.0,-72.48993,-15.93235,1187.0
040401,2018.0,04,AREQUIPA,04,CASTILLA,01,APLAO,18648,Sierra,18.0,768733.0,8245605.0,-72.49078,-15.854,2263.0
040402,2018.0,04,AREQUIPA,04,CASTILLA,02,ANDAGUA,18611,Sierra,18.0,788693.0,8291748.0,-72.31001,-15.43507,4316.0
040404,2018.0,04,AREQUIPA,04,CASTILLA,04,CHACHAS,18616,Sierra,18.0,802759.0,8306640.0,-72.18087,-15.29896,4998.0
040404,2018.0,04,AREQUIPA,04,CASTILLA,04,CHACHAS,18615,Sierra,18.0,820344.0,8324565.0,-72.01955,-15.135,4708.0
040405,2018.0,04,AREQUIPA,04,CASTILLA,05,CHILCAYMARCA,18608,Sierra,18.0,780338.0,8307979.0,-72.38963,-15.2894,4110.0
040407,2018.0,04,AREQUIPA,04,CASTILLA,07,HUANCARQUI,18645,Sierra,18.0,774502.0,8234088.0,-72.43563,-15.95739,2334.0
040408,2018.0,04,AREQUIPA,04,CASTILLA,08,MACHAGUAY,18624,Sierra,18.0,766403.0,8271271.0,-72.51534,-15.62244,3807.0
040410,2018.0,04,AREQUIPA,04,CASTILLA,10,PAMPACOLCA,18637,Sierra,18.0,758989.0,8260689.0,-72.58332,-15.7188,3070.0
040411,2018.0,04,AREQUIPA,04,CASTILLA,11,TIPAN,18642,Sierra,18.0,768502.0,8260457.0,-72.49459,-15.71989,2175.0
040602,2018.0,04,AREQUIPA,06,CONDESUYOS,02,ANDARAY,18594,Sierra,18.0,724863.0,8238759.0,-72.89955,-15.92021,1783.0
040603,2018.0,04,AREQUIPA,06,CONDESUYOS,03,CAYARANI,18570,Sierra,19.0,177246.0,8373870.0,-71.99667,-14.68954,4155.0
040604,2018.0,04,AREQUIPA,06,CONDESUYOS,04,CHICHAS,18579,Sierra,18.0,719555.0,8275250.0,-72.95241,-15.591,2571.0
040607,2018.0,04,AREQUIPA,06,CONDESUYOS,07,SALAMANCA,18575,Sierra,18.0,732434.0,8292282.0,-72.83397,-15.43598,4690.0
040608,2018.0,04,AREQUIPA,06,CONDESUYOS,08,YANAQUIHUA,18585,Sierra,18.0,723643.0,8254526.0,-72.9124,-15.77788,3018.0
040608,2018.0,04,AREQUIPA,06,CONDESUYOS,08,YANAQUIHUA,18583,Sierra,18.0,722351.0,8256634.0,-72.92465,-15.75895,2603.0
040608,2018.0,04,AREQUIPA,06,CONDESUYOS,08,YANAQUIHUA,18584,Sierra,18.0,729063.0,8265635.0,-72.86288,-15.67702,3975.0
040603,2018.0,04,AREQUIPA,06,CONDESUYOS,03,CAYARANI,18571,Sierra,19.0,178907.0,8362645.0,-71.98265,-14.79109,4637.0
040301,2018.0,04,AREQUIPA,03,CARAVELI,01,CARAVELI,18522,Sierra,18.0,682303.0,8252138.0,-73.29798,-15.80282,1846.0
040306,2018.0,04,AREQUIPA,03,CARAVELI,06,CAHUACHO,18520,Sierra,18.0,675721.0,8281436.0,-73.36152,-15.53853,3721.0
040306,2018.0,04,AREQUIPA,03,CARAVELI,06,CAHUACHO,18519,Sierra,18.0,656332.0,8280979.0,-73.54223,-15.54393,3275.0
040308,2018.0,04,AREQUIPA,03,CARAVELI,08,CHAPARRA,18514,Costa,18.0,616600.0,8243778.0,-73.91089,-15.88233,1866.0
040312,2018.0,04,AREQUIPA,03,CARAVELI,12,QUICACHA,18515,Sierra,18.0,630469.0,8294220.0,-73.78406,-15.4257,3609.0
040806,2018.0,04,AREQUIPA,08,LA UNION,06,PUYCA,18541,Sierra,18.0,747654.0,8335617.0,-72.69648,-15.04307,3863.0
040806,2018.0,04,AREQUIPA,08,LA UNION,06,PUYCA,18540,Sierra,18.0,747626.0,8338437.0,-72.69702,-15.0176,4145.0
040801,2018.0,04,AREQUIPA,08,LA UNION,01,COTAHUASI,18558,Sierra,18.0,725338.0,8314719.0,-72.90209,-15.2339,3004.0
040801,2018.0,04,AREQUIPA,08,LA UNION,01,COTAHUASI,18556,Sierra,18.0,726732.0,8316858.0,-72.88931,-15.21445,2680.0
040804,2018.0,04,AREQUIPA,08,LA UNION,04,HUAYNACOTAS,18533,Sierra,18.0,736683.0,8325330.0,-72.79751,-15.13703,3161.0
040804,2018.0,04,AREQUIPA,08,LA UNION,04,HUAYNACOTAS,18532,Sierra,18.0,737805.0,8326277.0,-72.78716,-15.12836,3359.0
040805,2018.0,04,AREQUIPA,08,LA UNION,05,PAMPAMARCA,18527,Sierra,18.0,717719.0,8328289.0,-72.97416,-15.11194,4722.0
040103,2018.0,04,AREQUIPA,01,AREQUIPA,03,CAYMA,18849,Sierra,19.0,227762.0,8187420.0,-71.54863,-16.37911,2414.0
040104,2018.0,04,AREQUIPA,01,AREQUIPA,04,CERRO COLORADO,18854,Sierra,19.0,222606.0,8185181.0,-71.59714,-16.39875,2294.0
040104,2018.0,04,AREQUIPA,01,AREQUIPA,04,CERRO COLORADO,18852,Sierra,19.0,225505.0,8187404.0,-71.56975,-16.379,2408.0
040105,2018.0,04,AREQUIPA,01,AREQUIPA,05,CHARACATO,18916,Sierra,19.0,240770.0,8176477.0,-71.42816,-16.47939,2962.0
050206,2018.0,05,AYACUCHO,02,CANGALLO,06,TOTOS,14095,Sierra,18.0,553698.0,8498587.0,-74.50364,-13.58073,3564.0
050202,2018.0,05,AYACUCHO,02,CANGALLO,02,CHUSCHI,14109,Sierra,18.0,567603.0,8497320.0,-74.37509,-13.5919,3376.0
050203,2018.0,05,AYACUCHO,02,CANGALLO,03,LOS MOROCHUCOS,14136,Sierra,18.0,589102.0,8498106.0,-74.1764,-13.58422,3350.0
050203,2018.0,05,AYACUCHO,02,CANGALLO,03,LOS MOROCHUCOS,14130,Sierra,18.0,588031.0,8500552.0,-74.18637,-13.56213,3272.0
050201,2018.0,05,AYACUCHO,02,CANGALLO,01,CANGALLO,14148,Sierra,18.0,601342.0,8492396.0,-74.06306,-13.63544,3619.0
050203,2018.0,05,AYACUCHO,02,CANGALLO,03,LOS MOROCHUCOS,14116,Sierra,18.0,580157.0,8516194.0,-74.25958,-13.42094,3711.0
050204,2018.0,05,AYACUCHO,02,CANGALLO,04,MARIA PARADO DE BELLIDO,14139,Sierra,18.0,580089.0,8497767.0,-74.25969,-13.58754,3560.0
050206,2018.0,05,AYACUCHO,02,CANGALLO,06,TOTOS,14094,Sierra,18.0,555028.0,8497316.0,-74.49133,-13.5922,3062.0
050105,2018.0,05,AYACUCHO,01,HUAMANGA,05,CHIARA,14033,Sierra,18.0,597621.0,8508185.0,-74.098,-13.49282,3434.0
050114,2018.0,05,AYACUCHO,01,HUAMANGA,14,VINCHOS,14004,Sierra,18.0,566956.0,8522818.0,-74.38166,-13.36137,3561.0
050114,2018.0,05,AYACUCHO,01,HUAMANGA,14,VINCHOS,13994,Sierra,18.0,571263.0,8528366.0,-74.34203,-13.3111,3263.0
050601,2018.0,05,AYACUCHO,06,LUCANAS,01,PUQUIO,14410,Sierra,18.0,594191.0,8374932.0,-74.12511,-14.69766,3198.0
050601,2018.0,05,AYACUCHO,06,LUCANAS,01,PUQUIO,14401,Sierra,18.0,601979.0,8384174.0,-74.05314,-14.61382,3979.0
050607,2018.0,05,AYACUCHO,06,LUCANAS,07,HUAC-HUAS,14337,Sierra,18.0,500902.0,8441036.0,-74.99164,-14.10161,2817.0
050609,2018.0,05,AYACUCHO,06,LUCANAS,09,LEONCIO PRADO,14383,Sierra,18.0,525517.0,8379763.0,-74.76303,-14.6555,2798.0
050611,2018.0,05,AYACUCHO,06,LUCANAS,11,LUCANAS,14377,Sierra,18.0,586405.0,8387533.0,-74.19785,-14.58399,4012.0
050611,2018.0,05,AYACUCHO,06,LUCANAS,11,LUCANAS,14375,Sierra,18.0,583458.0,8402972.0,-74.22568,-14.44451,4105.0
050615,2018.0,05,AYACUCHO,06,LUCANAS,15,SAN CRISTOBAL,14392,Sierra,18.0,581221.0,8372043.0,-74.24549,-14.72419,3937.0
050617,2018.0,05,AYACUCHO,06,LUCANAS,17,SAN PEDRO,14430,Sierra,18.0,593177.0,8364746.0,-74.13417,-14.78978,2863.0
050617,2018.0,05,AYACUCHO,06,LUCANAS,17,SAN PEDRO,14427,Sierra,18.0,598614.0,8366509.0,-74.08372,-14.77364,3654.0
050801,2018.0,05,AYACUCHO,08,PAUCAR DEL SARA SARA,01,PAUSA,14529,Sierra,18.0,676269.0,8308222.0,-73.35831,-15.29642,2966.0
050801,2018.0,05,AYACUCHO,08,PAUCAR DEL SARA SARA,01,PAUSA,14527,Sierra,18.0,675966.0,8312059.0,-73.36141,-15.26176,2893.0
050804,2018.0,05,AYACUCHO,08,PAUCAR DEL SARA SARA,04,LAMPA,14503,Sierra,18.0,672747.0,8323148.0,-73.39213,-15.16177,4134.0
050806,2018.0,05,AYACUCHO,08,PAUCAR DEL SARA SARA,06,OYOLO,14513,Sierra,18.0,691837.0,8322272.0,-73.21444,-15.16835,3909.0
050704,2018.0,05,AYACUCHO,07,PARINACOCHAS,04,PACAPAUSA,14471,Sierra,18.0,677033.0,8351157.0,-73.35419,-14.90834,3946.0
050704,2018.0,05,AYACUCHO,07,PARINACOCHAS,04,PACAPAUSA,14472,Sierra,18.0,675959.0,8345929.0,-73.36381,-14.95567,2770.0
050705,2018.0,05,AYACUCHO,07,PARINACOCHAS,05,PULLO,14499,Sierra,18.0,633051.0,8305270.0,-73.76059,-15.32569,3687.0
050706,2018.0,05,AYACUCHO,07,PARINACOCHAS,06,PUYUSCA,14492,Sierra,18.0,656789.0,8304682.0,-73.53947,-15.32967,3621.0
050701,2018.0,05,AYACUCHO,07,PARINACOCHAS,01,CORACORA,14457,Sierra,18.0,631916.0,8339026.0,-73.77293,-15.02063,3293.0
050701,2018.0,05,AYACUCHO,07,PARINACOCHAS,01,CORACORA,14454,Sierra,18.0,632088.0,8340315.0,-73.77139,-15.00897,3260.0
050302,2018.0,05,AYACUCHO,03,HUANCA SANCOS,02,CARAPO,14326,Sierra,18.0,574476.0,8472294.0,-74.3109,-13.81801,3981.0
050302,2018.0,05,AYACUCHO,03,HUANCA SANCOS,02,CARAPO,14324,Sierra,18.0,575841.0,8478562.0,-74.29845,-13.7613,3631.0
050303,2018.0,05,AYACUCHO,03,HUANCA SANCOS,03,SACSAMARCA,14331,Sierra,18.0,584777.0,8449572.0,-74.21491,-14.02315,4156.0
051005,2018.0,05,AYACUCHO,10,VICTOR FAJARDO,05,CANARIA,14305,Sierra,18.0,604074.0,8455828.0,-74.03645,-13.96595,4353.0
051006,2018.0,05,AYACUCHO,10,VICTOR FAJARDO,06,CAYARA,14292,Sierra,18.0,608027.0,8473508.0,-74.00055,-13.80596,3745.0
051007,2018.0,05,AYACUCHO,10,VICTOR FAJARDO,07,COLCA,14286,Sierra,18.0,605407.0,8483488.0,-74.02516,-13.71584,2837.0
051009,2018.0,05,AYACUCHO,10,VICTOR FAJARDO,09,HUANCARAYLLA,14262,Sierra,18.0,594653.0,8486441.0,-74.1247,-13.68951,3395.0
051010,2018.0,05,AYACUCHO,10,VICTOR FAJARDO,10,HUAYA,14296,Sierra,18.0,615287.0,8468470.0,-73.93318,-13.85123,3274.0
051011,2018.0,05,AYACUCHO,10,VICTOR FAJARDO,11,SARHUA,14246,Sierra,18.0,572658.0,8488788.0,-74.32815,-13.66893,3187.0
051012,2018.0,05,AYACUCHO,10,VICTOR FAJARDO,12,VILCANCHOS,14233,Sierra,18.0,526085.0,8490175.0,-74.75881,-13.65718,4056.0
051101,2018.0,05,AYACUCHO,11,VILCAS HUAMAN,01,VILCAS HUAMAN,14188,Sierra,18.0,617201.0,8486062.0,-73.9162,-13.69211,3679.0
051101,2018.0,05,AYACUCHO,11,VILCAS HUAMAN,01,VILCAS HUAMAN,14186,Sierra,18.0,628318.0,8490084.0,-73.8136,-13.65528,3076.0
051101,2018.0,05,AYACUCHO,11,VILCAS HUAMAN,01,VILCAS HUAMAN,14177,Sierra,18.0,612324.0,8492416.0,-73.96154,-13.63486,3204.0
051106,2018.0,05,AYACUCHO,11,VILCAS HUAMAN,06,INDEPENDENCIA,14205,Sierra,18.0,620579.0,8467378.0,-73.88416,-13.86088,3112.0
051108,2018.0,05,AYACUCHO,11,VILCAS HUAMAN,08,VISCHONGO,14164,Sierra,18.0,608341.0,8496213.0,-73.99851,-13.60068,3158.0
051108,2018.0,05,AYACUCHO,11,VILCAS HUAMAN,08,VISCHONGO,14163,Sierra,18.0,606173.0,8496586.0,-74.01856,-13.59739,3542.0
050102,2018.0,05,AYACUCHO,01,HUAMANGA,02,ACOCRO,14059,Sierra,18.0,610590.0,8525778.0,-73.97886,-13.3333,3586.0
050102,2018.0,05,AYACUCHO,01,HUAMANGA,02,ACOCRO,14056,Sierra,18.0,613763.0,8530241.0,-73.94974,-13.29283,3806.0
050102,2018.0,05,AYACUCHO,01,HUAMANGA,02,ACOCRO,14039,Sierra,18.0,599945.0,8535882.0,-74.07749,-13.24232,3386.0
050102,2018.0,05,AYACUCHO,01,HUAMANGA,02,ACOCRO,14038,Sierra,18.0,601273.0,8539610.0,-74.06536,-13.20857,3157.0
050108,2018.0,05,AYACUCHO,01,HUAMANGA,08,QUINUA,13924,Sierra,18.0,594596.0,8553582.0,-74.12742,-13.08246,2987.0
050111,2018.0,05,AYACUCHO,01,HUAMANGA,11,SANTIAGO DE PISCHA,13886,Sierra,18.0,569098.0,8550395.0,-74.36253,-13.11197,3648.0
050111,2018.0,05,AYACUCHO,01,HUAMANGA,11,SANTIAGO DE PISCHA,13884,Sierra,18.0,565978.0,8552057.0,-74.39135,-13.09701,3279.0
050111,2018.0,05,AYACUCHO,01,HUAMANGA,11,SANTIAGO DE PISCHA,13883,Sierra,18.0,566506.0,8556585.0,-74.38658,-13.05605,3285.0
050112,2018.0,05,AYACUCHO,01,HUAMANGA,12,SOCOS,13974,Sierra,18.0,574569.0,8537015.0,-74.31172,-13.23281,3690.0
050112,2018.0,05,AYACUCHO,01,HUAMANGA,12,SOCOS,13970,Sierra,18.0,578312.0,8539318.0,-74.27724,-13.2119,3391.0
050112,2018.0,05,AYACUCHO,01,HUAMANGA,12,SOCOS,13966,Sierra,18.0,572845.0,8542944.0,-74.32778,-13.17926,3640.0
050113,2018.0,05,AYACUCHO,01,HUAMANGA,13,TAMBILLO,13953,Sierra,18.0,591234.0,8538605.0,-74.15797,-13.21798,3203.0
050113,2018.0,05,AYACUCHO,01,HUAMANGA,13,TAMBILLO,13950,Sierra,18.0,592767.0,8547672.0,-74.1441,-13.13595,2816.0
050405,2018.0,05,AYACUCHO,04,HUANTA,05,LURICOCHA,13622,Sierra,18.0,579162.0,8572362.0,-74.27027,-12.9131,2539.0
050405,2018.0,05,AYACUCHO,04,HUANTA,05,LURICOCHA,13621,Sierra,18.0,579712.0,8572913.0,-74.26522,-12.9081,2598.0
050405,2018.0,05,AYACUCHO,04,HUANTA,05,LURICOCHA,13616,Sierra,18.0,579565.0,8575231.0,-74.26664,-12.88714,2816.0
050406,2018.0,05,AYACUCHO,04,HUANTA,06,SANTILLANA,13604,Sierra,18.0,585408.0,8585112.0,-74.21306,-12.79764,4056.0
050406,2018.0,05,AYACUCHO,04,HUANTA,06,SANTILLANA,13601,Sierra,18.0,580618.0,8588879.0,-74.25729,-12.76371,3075.0
050407,2018.0,05,AYACUCHO,04,HUANTA,07,SIVIA,13586,Selva,18.0,622807.0,8604749.0,-73.86929,-12.61885,1178.0
050407,2018.0,05,AYACUCHO,04,HUANTA,07,SIVIA,13584,Selva,18.0,618649.0,8607964.0,-73.9077,-12.58994,1753.0
050407,2018.0,05,AYACUCHO,04,HUANTA,07,SIVIA,13565,Selva,18.0,605794.0,8616764.0,-74.02633,-12.51083,1875.0
050401,2018.0,05,AYACUCHO,04,HUANTA,01,HUANTA,13650,Sierra,18.0,583714.0,8568542.0,-74.22821,-12.94751,2791.0
050401,2018.0,05,AYACUCHO,04,HUANTA,01,HUANTA,13667,Sierra,18.0,579753.0,8568485.0,-74.26472,-12.94814,2476.0
050401,2018.0,05,AYACUCHO,04,HUANTA,01,HUANTA,13636,Sierra,18.0,597966.0,8584392.0,-74.09734,-12.80378,4038.0
050401,2018.0,05,AYACUCHO,04,HUANTA,01,HUANTA,13630,Sierra,18.0,594644.0,8587462.0,-74.12804,-12.77613,3970.0
050402,2018.0,05,AYACUCHO,04,HUANTA,02,AYAHUANCO,13541,Sierra,18.0,575786.0,8605010.0,-74.3022,-12.61797,3518.0
050402,2018.0,05,AYACUCHO,04,HUANTA,02,AYAHUANCO,13538,Sierra,18.0,574223.0,8616796.0,-74.31687,-12.51143,3321.0
050403,2018.0,05,AYACUCHO,04,HUANTA,03,HUAMANGUILLA,13697,Sierra,18.0,587666.0,8560060.0,-74.19153,-13.0241,3051.0
050403,2018.0,05,AYACUCHO,04,HUANTA,03,HUAMANGUILLA,13707,Sierra,18.0,592920.0,8561269.0,-74.14312,-13.01301,3412.0
050403,2018.0,05,AYACUCHO,04,HUANTA,03,HUAMANGUILLA,13690,Sierra,18.0,590708.0,8563154.0,-74.16357,-12.99604,3438.0
050401,2018.0,05,AYACUCHO,04,HUANTA,01,HUANTA,13653,Sierra,18.0,582802.0,8569813.0,-74.23665,-12.93605,2730.0
050504,2018.0,05,AYACUCHO,05,LA MAR,04,CHILCAS,13859,Sierra,18.0,629015.0,8542790.0,-73.8095,-13.17876,2697.0
050505,2018.0,05,AYACUCHO,05,LA MAR,05,CHUNGUI,13881,Sierra,18.0,678063.0,8524614.0,-73.35591,-13.34055,2072.0
050505,2018.0,05,AYACUCHO,05,LA MAR,05,CHUNGUI,13876,Sierra,18.0,650388.0,8533480.0,-73.61184,-13.26193,3662.0
050502,2018.0,05,AYACUCHO,05,LA MAR,02,ANCO,13842,Sierra,18.0,645005.0,8555536.0,-73.6626,-13.06281,3491.0
050502,2018.0,05,AYACUCHO,05,LA MAR,02,ANCO,13837,Sierra,18.0,658988.0,8564872.0,-73.53415,-12.97771,765.0
050502,2018.0,05,AYACUCHO,05,LA MAR,02,ANCO,13828,Sierra,18.0,652406.0,8571756.0,-73.59518,-12.91581,1446.0
050506,2018.0,05,AYACUCHO,05,LA MAR,06,LUIS CARRANZA,13867,Sierra,18.0,621374.0,8539004.0,-73.87984,-13.21331,3114.0
050507,2018.0,05,AYACUCHO,05,LA MAR,07,SANTA ROSA,13755,Selva,18.0,626188.0,8584258.0,-73.83733,-12.80398,3563.0
050507,2018.0,05,AYACUCHO,05,LA MAR,07,SANTA ROSA,13743,Selva,18.0,633371.0,8596587.0,-73.77169,-12.69221,993.0
050507,2018.0,05,AYACUCHO,05,LA MAR,07,SANTA ROSA,13729,Selva,18.0,637912.0,8600563.0,-73.73005,-12.65607,834.0
050508,2018.0,05,AYACUCHO,05,LA MAR,08,TAMBO,13797,Sierra,18.0,602717.0,8569122.0,-74.05305,-12.9417,4093.0
050508,2018.0,05,AYACUCHO,05,LA MAR,08,TAMBO,13774,Sierra,18.0,608501.0,8572934.0,-73.99987,-12.90703,3177.0
070106,2018.0,07,CALLAO,01,CALLAO,06,VENTANILLA,12627,Costa,18.0,269942.0,8683750.0,-77.11213,-11.89891,243.0
080701,2018.0,08,CUSCO,07,CHUMBIVILCAS,01,SANTO TOMAS,16654,Sierra,18.0,796525.0,8388223.0,-72.24826,-14.56294,4169.0
080701,2018.0,08,CUSCO,07,CHUMBIVILCAS,01,SANTO TOMAS,16640,Sierra,18.0,816555.0,8406682.0,-72.06474,-14.394,3522.0
080801,2018.0,08,CUSCO,08,ESPINAR,01,ESPINAR,16728,Sierra,19.0,246601.0,8352051.0,-71.3553,-14.89407,4297.0
080704,2018.0,08,CUSCO,07,CHUMBIVILCAS,04,COLQUEMARCA,16579,Sierra,18.0,818215.0,8408764.0,-72.04961,-14.375,3777.0
080704,2018.0,08,CUSCO,07,CHUMBIVILCAS,04,COLQUEMARCA,16574,Sierra,18.0,815877.0,8418154.0,-72.07238,-14.29049,3852.0
080705,2018.0,08,CUSCO,07,CHUMBIVILCAS,05,LIVITACA,16605,Sierra,19.0,215115.0,8432712.0,-71.63909,-14.16235,3937.0
080706,2018.0,08,CUSCO,07,CHUMBIVILCAS,06,LLUSCO,16552,Sierra,18.0,812501.0,8408484.0,-72.10252,-14.37819,3414.0
080706,2018.0,08,CUSCO,07,CHUMBIVILCAS,06,LLUSCO,16554,Sierra,18.0,809074.0,8407211.0,-72.13412,-14.39007,3919.0
080707,2018.0,08,CUSCO,07,CHUMBIVILCAS,07,QUIÑOTA,16560,Sierra,18.0,810622.0,8417450.0,-72.12096,-14.29743,3617.0
080708,2018.0,08,CUSCO,07,CHUMBIVILCAS,08,VELILLE,16637,Sierra,19.0,180169.0,8389569.0,-71.96765,-14.54814,4487.0
080708,2018.0,08,CUSCO,07,CHUMBIVILCAS,08,VELILLE,16627,Sierra,19.0,180679.0,8397458.0,-71.96198,-14.47697,4081.0
080805,2018.0,08,CUSCO,08,ESPINAR,05,PALLPATA,16738,Sierra,19.0,266927.0,8350865.0,-71.16659,-14.90665,4051.0
080807,2018.0,08,CUSCO,08,ESPINAR,07,SUYCKUTAMBO,16673,Sierra,19.0,216373.0,8351251.0,-71.63615,-14.89824,4396.0
080806,2018.0,08,CUSCO,08,ESPINAR,06,PICHIGUA,16705,Sierra,19.0,238806.0,8381967.0,-71.42472,-14.62307,4125.0
080707,2018.0,08,CUSCO,07,CHUMBIVILCAS,07,QUIÑOTA,16565,Sierra,18.0,792722.0,8400077.0,-72.28483,-14.45629,4461.0
080901,2018.0,08,CUSCO,09,LA CONVENCION,01,SANTA ANA,15498,Selva,18.0,748494.0,8573840.0,-72.71005,-12.89073,1774.0
080901,2018.0,08,CUSCO,09,LA CONVENCION,01,SANTA ANA,15491,Selva,18.0,747260.0,8575907.0,-72.72158,-12.87215,1676.0
080901,2018.0,08,CUSCO,09,LA CONVENCION,01,SANTA ANA,15479,Selva,18.0,748482.0,8581845.0,-72.71081,-12.8184,1415.0
080902,2018.0,08,CUSCO,09,LA CONVENCION,02,ECHARATE,15388,Selva,18.0,769873.0,8599168.0,-72.51539,-12.66011,1242.0
080902,2018.0,08,CUSCO,09,LA CONVENCION,02,ECHARATE,15358,Selva,18.0,702473.0,8597437.0,-73.13553,-12.68082,1308.0
080902,2018.0,08,CUSCO,09,LA CONVENCION,02,ECHARATE,15381,Selva,18.0,744644.0,8603230.0,-72.74785,-12.62547,1626.0
080902,2018.0,08,CUSCO,09,LA CONVENCION,02,ECHARATE,15359,Selva,18.0,712489.0,8604164.0,-73.04381,-12.61937,1420.0
080902,2018.0,08,CUSCO,09,LA CONVENCION,02,ECHARATE,15347,Selva,18.0,711732.0,8610357.0,-73.05119,-12.56345,1011.0
080902,2018.0,08,CUSCO,09,LA CONVENCION,02,ECHARATE,15331,Selva,18.0,722020.0,8625463.0,-72.95761,-12.42622,1334.0
080902,2018.0,08,CUSCO,09,LA CONVENCION,02,ECHARATE,15319,Selva,18.0,676800.0,8718718.0,-73.37852,-11.58604,578.0
080903,2018.0,08,CUSCO,09,LA CONVENCION,03,HUAYOPATA,15453,Sierra,18.0,781671.0,8556294.0,-72.40287,-13.04637,3179.0
080905,2018.0,08,CUSCO,09,LA CONVENCION,05,OCOBAMBA,15446,Sierra,18.0,790051.0,8561165.0,-72.32613,-13.00159,2651.0
080906,2018.0,08,CUSCO,09,LA CONVENCION,06,QUELLOUNO,15423,Selva,18.0,768574.0,8606320.0,-72.52796,-12.59561,1288.0
080906,2018.0,08,CUSCO,09,LA CONVENCION,06,QUELLOUNO,15409,Selva,18.0,756678.0,8631698.0,-72.63948,-12.3673,1238.0
080907,2018.0,08,CUSCO,09,LA CONVENCION,07,KIMBIRI,15302,Selva,18.0,650865.0,8589821.0,-73.61028,-12.75258,1463.0
080909,2018.0,08,CUSCO,09,LA CONVENCION,09,VILCABAMBA,15513,Sierra,18.0,724339.0,8538371.0,-72.92987,-13.2131,4131.0
080909,2018.0,08,CUSCO,09,LA CONVENCION,09,VILCABAMBA,15509,Sierra,18.0,681650.0,8554215.0,-73.32463,-13.07278,2270.0
080910,2018.0,08,CUSCO,09,LA CONVENCION,10,PICHARI,15273,Selva,18.0,625335.0,8618660.0,-73.84658,-12.49298,538.0
080910,2018.0,08,CUSCO,09,LA CONVENCION,10,PICHARI,15254,Selva,18.0,612941.0,8645920.0,-73.9616,-12.24697,542.0
080106,2018.0,08,CUSCO,01,CUSCO,06,SANTIAGO,16190,Sierra,19.0,176390.0,8499352.0,-71.98978,-13.55641,3612.0
081001,2018.0,08,CUSCO,10,PARURO,01,PARURO,16262,Sierra,19.0,192122.0,8471808.0,-71.84755,-13.80685,3171.0
081003,2018.0,08,CUSCO,10,PARURO,03,CCAPI,16277,Sierra,18.0,821050.0,8460725.0,-72.02946,-13.90548,3828.0
081003,2018.0,08,CUSCO,10,PARURO,03,CCAPI,16274,Sierra,18.0,815426.0,8469088.0,-72.08239,-13.8306,3230.0
081004,2018.0,08,CUSCO,10,PARURO,04,COLCHA,16280,Sierra,19.0,193010.0,8469005.0,-71.83965,-13.83226,3166.0
081103,2018.0,08,CUSCO,11,PAUCARTAMBO,03,CHALLABAMBA,15917,Sierra,19.0,199707.0,8548710.0,-71.76946,-13.11309,3792.0
081102,2018.0,08,CUSCO,11,PAUCARTAMBO,02,CAICAY,15991,Sierra,19.0,211958.0,8497979.0,-71.66158,-13.57252,4367.0
081105,2018.0,08,CUSCO,11,PAUCARTAMBO,05,HUANCARANI,15984,Sierra,19.0,219762.0,8499618.0,-71.58936,-13.55848,4025.0
081101,2018.0,08,CUSCO,11,PAUCARTAMBO,01,PAUCARTAMBO,15949,Sierra,19.0,236148.0,8508506.0,-71.43724,-13.4797,4174.0
081101,2018.0,08,CUSCO,11,PAUCARTAMBO,01,PAUCARTAMBO,15936,Sierra,19.0,219695.0,8527789.0,-71.58724,-13.304,3313.0
081101,2018.0,08,CUSCO,11,PAUCARTAMBO,01,PAUCARTAMBO,15937,Sierra,19.0,212978.0,8527563.0,-71.64922,-13.30539,3873.0
081201,2018.0,08,CUSCO,12,QUISPICANCHI,01,URCOS,16052,Sierra,19.0,215251.0,8479036.0,-71.63307,-13.74395,3850.0
081201,2018.0,08,CUSCO,12,QUISPICANCHI,01,URCOS,16040,Sierra,19.0,216928.0,8492092.0,-71.61627,-13.62618,4063.0
081203,2018.0,08,CUSCO,12,QUISPICANCHI,03,CAMANTI,16087,Selva,19.0,327615.0,8543169.0,-70.59059,-13.17316,642.0
081204,2018.0,08,CUSCO,12,QUISPICANCHI,04,CCARHUAYO,16084,Sierra,19.0,246436.0,8496613.0,-71.34331,-13.58806,4059.0
081206,2018.0,08,CUSCO,12,QUISPICANCHI,06,CUSIPATA,16162,Sierra,19.0,230295.0,8458260.0,-71.49606,-13.93307,3628.0
081210,2018.0,08,CUSCO,12,QUISPICANCHI,10,OCONGATE,16118,Sierra,19.0,242351.0,8485031.0,-71.3821,-13.69234,3841.0
081210,2018.0,08,CUSCO,12,QUISPICANCHI,10,OCONGATE,16126,Sierra,19.0,267360.0,8484335.0,-71.15105,-13.70074,5163.0
081211,2018.0,08,CUSCO,12,QUISPICANCHI,11,OROPESA,16008,Sierra,19.0,197467.0,8494341.0,-71.79575,-13.60391,3519.0
081212,2018.0,08,CUSCO,12,QUISPICANCHI,12,QUIQUIJANA,16149,Sierra,19.0,232282.0,8468918.0,-71.47665,-13.83699,4095.0
080102,2018.0,08,CUSCO,01,CUSCO,02,CCORCA,16164,Sierra,18.0,817431.0,8500811.0,-72.06742,-13.54391,3827.0
080201,2018.0,08,CUSCO,02,ACOMAYO,01,ACOMAYO,16319,Sierra,19.0,208545.0,8459340.0,-71.69708,-13.92117,3471.0
080203,2018.0,08,CUSCO,02,ACOMAYO,03,ACOS,16333,Sierra,19.0,204283.0,8456587.0,-71.73679,-13.9456,3126.0
080205,2018.0,08,CUSCO,02,ACOMAYO,05,POMACANCHI,16352,Sierra,19.0,213349.0,8438708.0,-71.65481,-14.10802,3591.0
080206,2018.0,08,CUSCO,02,ACOMAYO,06,RONDOCAN,16308,Sierra,19.0,200622.0,8481157.0,-71.76801,-13.72331,4197.0
080301,2018.0,08,CUSCO,03,ANTA,01,ANTA,15645,Sierra,18.0,804152.0,8511386.0,-72.1911,-13.4498,3321.0
081212,2018.0,08,CUSCO,12,QUISPICANCHI,12,QUIQUIJANA,16136,Sierra,19.0,232765.0,8475640.0,-71.47155,-13.77631,4449.0
081209,2018.0,08,CUSCO,12,QUISPICANCHI,09,MARCAPATA,16091,Sierra,19.0,291154.0,8504322.0,-70.92968,-13.52193,3562.0
081005,2018.0,08,CUSCO,10,PARURO,05,HUANOQUITE,16238,Sierra,18.0,822985.0,8485768.0,-72.01445,-13.67914,3422.0
080301,2018.0,08,CUSCO,03,ANTA,01,ANTA,15655,Sierra,18.0,813221.0,8502000.0,-72.10641,-13.53362,4026.0
080301,2018.0,08,CUSCO,03,ANTA,01,ANTA,15654,Sierra,18.0,815542.0,8502834.0,-72.08508,-13.52584,3983.0
080301,2018.0,08,CUSCO,03,ANTA,01,ANTA,15675,Sierra,18.0,802422.0,8502636.0,-72.20615,-13.52901,3714.0
080305,2018.0,08,CUSCO,03,ANTA,05,HUAROCONDO,15612,Sierra,18.0,801742.0,8513405.0,-72.21356,-13.43182,3315.0
080305,2018.0,08,CUSCO,03,ANTA,05,HUAROCONDO,15608,Sierra,18.0,797843.0,8516693.0,-72.24987,-13.40252,4173.0
080302,2018.0,08,CUSCO,03,ANTA,02,ANCAHUASI,15577,Sierra,18.0,791293.0,8508537.0,-72.30947,-13.47684,3457.0
080302,2018.0,08,CUSCO,03,ANTA,02,ANCAHUASI,15571,Sierra,18.0,790922.0,8510697.0,-72.31312,-13.45736,3469.0
080304,2018.0,08,CUSCO,03,ANTA,04,CHINCHAYPUJIO,15682,Sierra,18.0,802822.0,8493779.0,-72.20152,-13.60896,3867.0
080306,2018.0,08,CUSCO,03,ANTA,06,LIMATAMBO,15560,Sierra,18.0,775387.0,8509269.0,-72.45636,-13.47176,2936.0
080307,2018.0,08,CUSCO,03,ANTA,07,MOLLEPATA,15545,Sierra,18.0,765399.0,8503696.0,-72.54804,-13.52302,2469.0
081301,2018.0,08,CUSCO,13,URUBAMBA,01,URUBAMBA,15722,Sierra,18.0,810317.0,8528148.0,-72.13601,-13.29779,2887.0
081301,2018.0,08,CUSCO,13,URUBAMBA,01,URUBAMBA,15711,Sierra,18.0,804148.0,8531688.0,-72.19326,-13.26644,3060.0
081306,2018.0,08,CUSCO,13,URUBAMBA,06,OLLANTAYTAMBO,15695,Sierra,18.0,794010.0,8540676.0,-72.28764,-13.18628,3467.0
080501,2018.0,08,CUSCO,05,CANAS,01,YANAOCA,16490,Sierra,19.0,237868.0,8428967.0,-71.42881,-14.19841,4064.0
080603,2018.0,08,CUSCO,06,CANCHIS,03,COMBAPATA,16391,Sierra,19.0,245086.0,8444213.0,-71.36055,-14.06134,4340.0
080605,2018.0,08,CUSCO,06,CANCHIS,05,PITUMARCA,16370,Sierra,19.0,243816.0,8457726.0,-71.37105,-13.93915,4529.0
080601,2018.0,08,CUSCO,06,CANCHIS,01,SICUANI,16433,Sierra,19.0,263075.0,8424434.0,-71.19578,-14.24162,3922.0
080601,2018.0,08,CUSCO,06,CANCHIS,01,SICUANI,16429,Sierra,19.0,266000.0,8428630.0,-71.16832,-14.20395,4103.0
080601,2018.0,08,CUSCO,06,CANCHIS,01,SICUANI,16462,Sierra,19.0,288672.0,8424597.0,-70.95864,-14.24221,4533.0
080603,2018.0,08,CUSCO,06,CANCHIS,03,COMBAPATA,16393,Sierra,19.0,248630.0,8438642.0,-71.32827,-14.11199,4207.0
080608,2018.0,08,CUSCO,06,CANCHIS,08,TINTA,16396,Sierra,19.0,238172.0,8434806.0,-71.42544,-14.14569,3887.0
080502,2018.0,08,CUSCO,05,CANAS,02,CHECCA,16526,Sierra,19.0,237644.0,8396786.0,-71.43402,-14.4891,3877.0
080601,2018.0,08,CUSCO,06,CANCHIS,01,SICUANI,16445,Sierra,19.0,257664.0,8420763.0,-71.24622,-14.27432,3701.0
080606,2018.0,08,CUSCO,06,CANCHIS,06,SAN PABLO,16416,Sierra,19.0,250582.0,8428836.0,-71.31109,-14.20076,3492.0
080401,2018.0,08,CUSCO,04,CALCA,01,CALCA,15832,Sierra,19.0,175438.0,8529787.0,-71.99516,-13.28147,4389.0
080403,2018.0,08,CUSCO,04,CALCA,03,LAMAY,15859,Sierra,19.0,185660.0,8522122.0,-71.90174,-13.35179,3343.0
080403,2018.0,08,CUSCO,04,CALCA,03,LAMAY,15857,Sierra,19.0,190429.0,8525159.0,-71.85743,-13.32486,4224.0
080404,2018.0,08,CUSCO,04,CALCA,04,LARES,15825,Sierra,18.0,819431.0,8545758.0,-72.05388,-13.1378,4020.0
080404,2018.0,08,CUSCO,04,CALCA,04,LARES,15827,Sierra,19.0,176902.0,8546726.0,-71.97981,-13.12866,4118.0
080404,2018.0,08,CUSCO,04,CALCA,04,LARES,15813,Sierra,18.0,823894.0,8564289.0,-72.01477,-12.96998,3841.0
080405,2018.0,08,CUSCO,04,CALCA,05,PISAC,15897,Sierra,19.0,189094.0,8516037.0,-71.87072,-13.4071,3642.0
080406,2018.0,08,CUSCO,04,CALCA,06,SAN SALVADOR,15899,Sierra,19.0,193591.0,8508668.0,-71.83001,-13.47412,3632.0
080408,2018.0,08,CUSCO,04,CALCA,08,YANATILE,15794,Sierra,18.0,801264.0,8589173.0,-72.22563,-12.74753,1743.0
090402,2018.0,09,HUANCAVELICA,04,CASTROVIRREYNA,02,ARMA,13458,Sierra,18.0,446666.0,8552017.0,-75.49201,-13.09762,4593.0
090403,2018.0,09,HUANCAVELICA,04,CASTROVIRREYNA,03,AURAHUA,13456,Sierra,18.0,452114.0,8562632.0,-75.44158,-13.00173,4449.0
090404,2018.0,09,HUANCAVELICA,04,CASTROVIRREYNA,04,CAPILLAS,13467,Sierra,18.0,427667.0,8522879.0,-75.66799,-13.36069,2250.0
090405,2018.0,09,HUANCAVELICA,04,CASTROVIRREYNA,05,CHUPAMARCA,13453,Sierra,18.0,446435.0,8574992.0,-75.49373,-12.88986,4556.0
090407,2018.0,09,HUANCAVELICA,04,CASTROVIRREYNA,07,HUACHOS,13468,Sierra,18.0,445895.0,8541377.0,-75.49932,-13.19381,4198.0
090413,2018.0,09,HUANCAVELICA,04,CASTROVIRREYNA,13,TICRAPO,13476,Sierra,18.0,455958.0,8518929.0,-75.40679,-13.39696,2884.0
090701,2018.0,09,HUANCAVELICA,07,TAYACAJA,01,PAMPAS,13049,Sierra,18.0,515100.0,8619482.0,-74.86104,-12.48797,3407.0
090705,2018.0,09,HUANCAVELICA,07,TAYACAJA,05,COLCABAMBA,12979,Sierra,18.0,537290.0,8616598.0,-74.65679,-12.51387,3900.0
090705,2018.0,09,HUANCAVELICA,07,TAYACAJA,05,COLCABAMBA,12978,Sierra,18.0,537120.0,8618859.0,-74.65838,-12.49343,3963.0
090705,2018.0,09,HUANCAVELICA,07,TAYACAJA,05,COLCABAMBA,12972,Sierra,18.0,541269.0,8623464.0,-74.62026,-12.45173,3714.0
090101,2018.0,09,HUANCAVELICA,01,HUANCAVELICA,01,HUANCAVELICA,13424,Sierra,18.0,503207.0,8572665.0,-74.97043,-12.91137,4300.0
090101,2018.0,09,HUANCAVELICA,01,HUANCAVELICA,01,HUANCAVELICA,13419,Sierra,18.0,508932.0,8591043.0,-74.91772,-12.74517,4049.0
090117,2018.0,09,HUANCAVELICA,01,HUANCAVELICA,17,YAULI,13441,Sierra,18.0,524133.0,8583618.0,-74.77762,-12.81223,3849.0
090117,2018.0,09,HUANCAVELICA,01,HUANCAVELICA,17,YAULI,13429,Sierra,18.0,522003.0,8588108.0,-74.79728,-12.77165,4100.0
090117,2018.0,09,HUANCAVELICA,01,HUANCAVELICA,17,YAULI,13428,Sierra,18.0,521783.0,8592517.0,-74.79934,-12.73178,4129.0
090103,2018.0,09,HUANCAVELICA,01,HUANCAVELICA,03,ACORIA,13401,Sierra,18.0,517111.0,8598829.0,-74.84241,-12.67473,3365.0
090103,2018.0,09,HUANCAVELICA,01,HUANCAVELICA,03,ACORIA,13382,Sierra,18.0,517194.0,8604866.0,-74.84168,-12.62014,4208.0
090103,2018.0,09,HUANCAVELICA,01,HUANCAVELICA,03,ACORIA,13405,Sierra,18.0,528438.0,8607747.0,-74.73818,-12.59401,3800.0
090103,2018.0,09,HUANCAVELICA,01,HUANCAVELICA,03,ACORIA,13373,Sierra,18.0,524943.0,8610593.0,-74.77038,-12.56829,4022.0
090103,2018.0,09,HUANCAVELICA,01,HUANCAVELICA,03,ACORIA,13376,Sierra,18.0,518116.0,8614724.0,-74.83325,-12.53099,3740.0
090103,2018.0,09,HUANCAVELICA,01,HUANCAVELICA,03,ACORIA,13370,Sierra,18.0,523148.0,8619471.0,-74.78697,-12.48803,4101.0
090106,2018.0,09,HUANCAVELICA,01,HUANCAVELICA,06,HUACHOCOLPA,13449,Sierra,18.0,503603.0,8564331.0,-74.96678,-12.98674,4749.0
090108,2018.0,09,HUANCAVELICA,01,HUANCAVELICA,08,IZCUCHACA,13328,Sierra,18.0,497189.0,8620158.0,-75.02587,-12.4819,3768.0
090108,2018.0,09,HUANCAVELICA,01,HUANCAVELICA,08,IZCUCHACA,13327,Sierra,18.0,496469.0,8620185.0,-75.0325,-12.48165,3896.0
090109,2018.0,09,HUANCAVELICA,01,HUANCAVELICA,09,LARIA,13339,Sierra,18.0,497102.0,8612918.0,-75.02668,-12.54737,3894.0
090112,2018.0,09,HUANCAVELICA,01,HUANCAVELICA,12,MOYA,13299,Sierra,18.0,485378.0,8620610.0,-75.13457,-12.47778,4485.0
090113,2018.0,09,HUANCAVELICA,01,HUANCAVELICA,13,NUEVO OCCORO,13355,Sierra,18.0,496149.0,8608062.0,-75.03546,-12.59128,4193.0
090114,2018.0,09,HUANCAVELICA,01,HUANCAVELICA,14,PALCA,13414,Sierra,18.0,501630.0,8596103.0,-74.98498,-12.69943,4436.0
090114,2018.0,09,HUANCAVELICA,01,HUANCAVELICA,14,PALCA,13412,Sierra,18.0,504189.0,8599057.0,-74.96142,-12.67271,4200.0
090116,2018.0,09,HUANCAVELICA,01,HUANCAVELICA,16,VILCA,13342,Sierra,18.0,478901.0,8623603.0,-75.19415,-12.45067,3778.0
090117,2018.0,09,HUANCAVELICA,01,HUANCAVELICA,17,YAULI,13444,Sierra,18.0,527847.0,8577701.0,-74.74335,-12.86571,4057.0
090119,2018.0,09,HUANCAVELICA,01,HUANCAVELICA,19,HUANDO,13359,Sierra,18.0,505361.0,8611883.0,-74.95065,-12.55673,3484.0
090201,2018.0,09,HUANCAVELICA,02,ACOBAMBA,01,ACOBAMBA,13190,Sierra,18.0,547486.0,8580105.0,-74.56238,-12.84374,3403.0
090201,2018.0,09,HUANCAVELICA,02,ACOBAMBA,01,ACOBAMBA,13184,Sierra,18.0,545457.0,8581455.0,-74.5811,-12.83156,3609.0
090201,2018.0,09,HUANCAVELICA,02,ACOBAMBA,01,ACOBAMBA,13177,Sierra,18.0,549555.0,8583448.0,-74.54336,-12.81347,3533.0
090201,2018.0,09,HUANCAVELICA,02,ACOBAMBA,01,ACOBAMBA,13175,Sierra,18.0,548996.0,8586619.0,-74.54857,-12.7848,3945.0
090203,2018.0,09,HUANCAVELICA,02,ACOBAMBA,03,ANTA,13162,Sierra,18.0,531527.0,8581570.0,-74.70946,-12.83069,3964.0
090203,2018.0,09,HUANCAVELICA,02,ACOBAMBA,03,ANTA,13166,Sierra,18.0,537258.0,8585961.0,-74.65671,-12.79092,3811.0
090204,2018.0,09,HUANCAVELICA,02,ACOBAMBA,04,CAJA,13214,Sierra,18.0,558638.0,8575265.0,-74.45951,-12.8873,3563.0
090204,2018.0,09,HUANCAVELICA,02,ACOBAMBA,04,CAJA,13215,Sierra,18.0,555974.0,8575803.0,-74.48408,-12.88249,3414.0
090206,2018.0,09,HUANCAVELICA,02,ACOBAMBA,06,PAUCARA,13127,Sierra,18.0,534525.0,8589721.0,-74.68193,-12.75695,3732.0
090206,2018.0,09,HUANCAVELICA,02,ACOBAMBA,06,PAUCARA,13137,Sierra,18.0,525061.0,8589911.0,-74.76912,-12.75532,3929.0
090206,2018.0,09,HUANCAVELICA,02,ACOBAMBA,06,PAUCARA,13133,Sierra,18.0,528204.0,8590830.0,-74.74017,-12.74698,3864.0
090207,2018.0,09,HUANCAVELICA,02,ACOBAMBA,07,POMACOCHA,13210,Sierra,18.0,553744.0,8576161.0,-74.50464,-12.87929,3343.0
090208,2018.0,09,HUANCAVELICA,02,ACOBAMBA,08,ROSARIO,13155,Sierra,18.0,541166.0,8589354.0,-74.62075,-12.76019,3893.0
090208,2018.0,09,HUANCAVELICA,02,ACOBAMBA,08,ROSARIO,13157,Sierra,18.0,539265.0,8589033.0,-74.63826,-12.76311,3940.0
090301,2018.0,09,HUANCAVELICA,03,ANGARAES,01,LIRCAY,13295,Sierra,18.0,533185.0,8536160.0,-74.69368,-13.24129,4590.0
090301,2018.0,09,HUANCAVELICA,03,ANGARAES,01,LIRCAY,13291,Sierra,18.0,533393.0,8556671.0,-74.69199,-13.05582,4232.0
090301,2018.0,09,HUANCAVELICA,03,ANGARAES,01,LIRCAY,13281,Sierra,18.0,522517.0,8555872.0,-74.7923,-13.06315,4285.0
090305,2018.0,09,HUANCAVELICA,03,ANGARAES,05,CHINCHO,13252,Sierra,18.0,572701.0,8566401.0,-74.32968,-12.96716,2781.0
090306,2018.0,09,HUANCAVELICA,03,ANGARAES,06,CONGALLA,13247,Sierra,18.0,555624.0,8561319.0,-74.48704,-13.01346,3683.0
090308,2018.0,09,HUANCAVELICA,03,ANGARAES,08,HUAYLLAY GRANDE,13236,Sierra,18.0,535946.0,8570523.0,-74.66862,-12.93053,4213.0
090308,2018.0,09,HUANCAVELICA,03,ANGARAES,08,HUAYLLAY GRANDE,13235,Sierra,18.0,535221.0,8572618.0,-74.67532,-12.9116,3587.0
090312,2018.0,09,HUANCAVELICA,03,ANGARAES,12,SECCLLA,13263,Sierra,18.0,549904.0,8558371.0,-74.53974,-13.04023,4171.0
090303,2018.0,09,HUANCAVELICA,03,ANGARAES,03,CALLANMARCA,13237,Sierra,18.0,540570.0,8578247.0,-74.62609,-12.86063,3480.0
090506,2018.0,09,HUANCAVELICA,05,CHURCAMPA,06,LOCROJA,13101,Sierra,18.0,559073.0,8597356.0,-74.45594,-12.68754,4157.0
090509,2018.0,09,HUANCAVELICA,05,CHURCAMPA,09,SAN PEDRO DE CORIS,13090,Sierra,18.0,556607.0,8605576.0,-74.47879,-12.61326,4069.0
090509,2018.0,09,HUANCAVELICA,05,CHURCAMPA,09,SAN PEDRO DE CORIS,13092,Sierra,18.0,564822.0,8608918.0,-74.40323,-12.58287,3130.0
090510,2018.0,09,HUANCAVELICA,05,CHURCAMPA,10,PACHAMARCA,13067,Sierra,18.0,560386.0,8611369.0,-74.44411,-12.5608,3591.0
090510,2018.0,09,HUANCAVELICA,05,CHURCAMPA,10,PACHAMARCA,13066,Sierra,18.0,555492.0,8613648.0,-74.48921,-12.54028,4216.0
090501,2018.0,09,HUANCAVELICA,05,CHURCAMPA,01,CHURCAMPA,13113,Sierra,18.0,570464.0,8591632.0,-74.35089,-12.73906,2959.0
090501,2018.0,09,HUANCAVELICA,05,CHURCAMPA,01,CHURCAMPA,13106,Sierra,18.0,562979.0,8598497.0,-74.41998,-12.67715,4087.0
090511,2018.0,09,HUANCAVELICA,05,CHURCAMPA,11,COSME,13055,Sierra,18.0,540310.0,8608703.0,-74.62889,-12.58523,3945.0
090511,2018.0,09,HUANCAVELICA,05,CHURCAMPA,11,COSME,13050,Sierra,18.0,534436.0,8613077.0,-74.68301,-12.54574,3465.0
090601,2018.0,09,HUANCAVELICA,06,HUAYTARA,01,HUAYTARA,13502,Sierra,18.0,450826.0,8486726.0,-75.45474,-13.68806,3193.0
090604,2018.0,09,HUANCAVELICA,06,HUAYTARA,04,HUAYACUNDO ARMA,13489,Sierra,18.0,466271.0,8501479.0,-75.31174,-13.55488,3642.0
090609,2018.0,09,HUANCAVELICA,06,HUAYTARA,09,QUITO-ARMA,13487,Sierra,18.0,454087.0,8503388.0,-75.42432,-13.53746,3553.0
090612,2018.0,09,HUANCAVELICA,06,HUAYTARA,12,SAN ISIDRO,13517,Sierra,18.0,476416.0,8452056.0,-75.21839,-14.00187,3480.0
090613,2018.0,09,HUANCAVELICA,06,HUAYTARA,13,SANTIAGO DE CHOCORVOS,13509,Sierra,18.0,482387.0,8477950.0,-75.16294,-13.76778,4163.0
090613,2018.0,09,HUANCAVELICA,06,HUAYTARA,13,SANTIAGO DE CHOCORVOS,13507,Sierra,18.0,490303.0,8488705.0,-75.08967,-13.67057,4235.0
090614,2018.0,09,HUANCAVELICA,06,HUAYTARA,14,SANTIAGO DE QUIRAHUARA,13530,Sierra,18.0,502166.0,8447073.0,-74.97994,-14.04702,2909.0
090615,2018.0,09,HUANCAVELICA,06,HUAYTARA,15,SANTO DOMINGO DE CAPILLAS,13505,Sierra,18.0,475185.0,8484670.0,-75.2295,-13.70696,3956.0
090616,2018.0,09,HUANCAVELICA,06,HUAYTARA,16,TAMBO,13499,Sierra,18.0,482982.0,8500857.0,-75.1573,-13.56065,4305.0
090702,2018.0,09,HUANCAVELICA,07,TAYACAJA,02,ACOSTAMBO,13020,Sierra,18.0,498511.0,8629969.0,-75.0137,-12.39318,4049.0
090704,2018.0,09,HUANCAVELICA,07,TAYACAJA,04,AHUAYCHA,13035,Sierra,18.0,512426.0,8627940.0,-74.88568,-12.4115,3545.0
090705,2018.0,09,HUANCAVELICA,07,TAYACAJA,05,COLCABAMBA,12957,Sierra,18.0,531483.0,8629087.0,-74.71036,-12.401,3879.0
090705,2018.0,09,HUANCAVELICA,07,TAYACAJA,05,COLCABAMBA,12952,Sierra,18.0,539642.0,8632792.0,-74.63534,-12.36741,2005.0
090705,2018.0,09,HUANCAVELICA,07,TAYACAJA,05,COLCABAMBA,12947,Sierra,18.0,534094.0,8636852.0,-74.68642,-12.33076,2497.0
090706,2018.0,09,HUANCAVELICA,07,TAYACAJA,06,DANIEL HERNANDEZ,12983,Sierra,18.0,519573.0,8639887.0,-74.81999,-12.30342,2389.0
090706,2018.0,09,HUANCAVELICA,07,TAYACAJA,06,DANIEL HERNANDEZ,12982,Sierra,18.0,515484.0,8638386.0,-74.85759,-12.31702,3434.0
090709,2018.0,09,HUANCAVELICA,07,TAYACAJA,09,HUARIBAMBA,12992,Sierra,18.0,508888.0,8653396.0,-74.9183,-12.18131,3926.0
090709,2018.0,09,HUANCAVELICA,07,TAYACAJA,09,HUARIBAMBA,12990,Sierra,18.0,500369.0,8656522.0,-74.99661,-12.15305,4315.0
090711,2018.0,09,HUANCAVELICA,07,TAYACAJA,11,PAZOS,13012,Sierra,18.0,500123.0,8639315.0,-74.99887,-12.30866,3800.0
090711,2018.0,09,HUANCAVELICA,07,TAYACAJA,11,PAZOS,13004,Sierra,18.0,501847.0,8645947.0,-74.98301,-12.24868,3522.0
090715,2018.0,09,HUANCAVELICA,07,TAYACAJA,15,SALCAHUASI,12924,Sierra,18.0,527652.0,8656059.0,-74.74583,-12.15712,2704.0
090715,2018.0,09,HUANCAVELICA,07,TAYACAJA,15,SALCAHUASI,12919,Sierra,18.0,526753.0,8666105.0,-74.75418,-12.06629,2383.0
090717,2018.0,09,HUANCAVELICA,07,TAYACAJA,17,SURCUBAMBA,12929,Sierra,18.0,541462.0,8657178.0,-74.61892,-12.14686,3859.0
090717,2018.0,09,HUANCAVELICA,07,TAYACAJA,17,SURCUBAMBA,12925,Sierra,18.0,533845.0,8666223.0,-74.68902,-12.06515,2268.0
090718,2018.0,09,HUANCAVELICA,07,TAYACAJA,18,TINTAY PUNCU,12940,Sierra,18.0,561112.0,8651269.0,-74.4382,-12.19998,2321.0
090107,2018.0,09,HUANCAVELICA,01,HUANCAVELICA,07,HUAYLLAHUARA,13297,Sierra,18.0,480112.0,8629046.0,-75.18297,-12.40146,4081.0
101001,2018.0,10,HUÁNUCO,10,LAURICOCHA,01,JESUS,10316,Sierra,18.0,318419.0,8880493.0,-76.65724,-10.1233,4018.0
101002,2018.0,10,HUÁNUCO,10,LAURICOCHA,02,BA├æOS,10311,Sierra,18.0,310049.0,8879494.0,-76.73366,-10.13194,4151.0
101005,2018.0,10,HUÁNUCO,10,LAURICOCHA,05,RONDOS,10301,Sierra,18.0,305592.0,8892887.0,-76.77366,-10.01065,4180.0
101006,2018.0,10,HUÁNUCO,10,LAURICOCHA,06,SAN FRANCISCO DE ASIS,10302,Sierra,18.0,325063.0,8899456.0,-76.59578,-9.95216,3850.0
101007,2018.0,10,HUÁNUCO,10,LAURICOCHA,07,SAN MIGUEL DE CAURI,10331,Sierra,18.0,324153.0,8855041.0,-76.60608,-10.35367,4388.0
101007,2018.0,10,HUÁNUCO,10,LAURICOCHA,07,SAN MIGUEL DE CAURI,10325,Sierra,18.0,319094.0,8875511.0,-76.65132,-10.16838,4014.0
101101,2018.0,10,HUÁNUCO,11,YAROWILCA,01,CHAVINILLO,10257,Sierra,18.0,328778.0,8908237.0,-76.56152,-9.87293,3950.0
101101,2018.0,10,HUÁNUCO,11,YAROWILCA,01,CHAVINILLO,10248,Sierra,18.0,325750.0,8916778.0,-76.58876,-9.79558,4003.0
101102,2018.0,10,HUÁNUCO,11,YAROWILCA,02,CAHUAC,10274,Sierra,18.0,322297.0,8908591.0,-76.6206,-9.86945,3375.0
101102,2018.0,10,HUÁNUCO,11,YAROWILCA,02,CAHUAC,10270,Sierra,18.0,319241.0,8911214.0,-76.64834,-9.8456,3706.0
101103,2018.0,10,HUÁNUCO,11,YAROWILCA,03,CHACABAMBA,10277,Sierra,18.0,320700.0,8903830.0,-76.63537,-9.91242,3592.0
101104,2018.0,10,HUÁNUCO,11,YAROWILCA,04,APARICIO POMARES,10244,Sierra,18.0,319975.0,8920763.0,-76.64122,-9.7593,3702.0
101104,2018.0,10,HUÁNUCO,11,YAROWILCA,04,APARICIO POMARES,10243,Sierra,18.0,322856.0,8922267.0,-76.6149,-9.74583,4124.0
101106,2018.0,10,HUÁNUCO,11,YAROWILCA,06,OBAS,10261,Sierra,18.0,315130.0,8918503.0,-76.68548,-9.77951,3849.0
101108,2018.0,10,HUÁNUCO,11,YAROWILCA,08,CHORAS,10280,Sierra,18.0,330884.0,8903977.0,-76.5425,-9.91153,3947.0
100201,2018.0,10,HUÁNUCO,02,AMBO,01,AMBO,10353,Sierra,18.0,371546.0,8876245.0,-76.17259,-10.1638,2614.0
100201,2018.0,10,HUÁNUCO,02,AMBO,01,AMBO,10354,Sierra,18.0,367463.0,8877712.0,-76.2098,-10.1504,2894.0
100205,2018.0,10,HUÁNUCO,02,AMBO,05,HUACAR,10368,Sierra,18.0,361765.0,8865928.0,-76.26223,-10.25676,3000.0
100205,2018.0,10,HUÁNUCO,02,AMBO,05,HUACAR,10366,Sierra,18.0,356184.0,8870896.0,-76.31299,-10.21164,3331.0
100206,2018.0,10,HUÁNUCO,02,AMBO,06,SAN FRANCISCO,10382,Sierra,18.0,356449.0,8862239.0,-76.3109,-10.28992,3404.0
100207,2018.0,10,HUÁNUCO,02,AMBO,07,SAN RAFAEL,10397,Sierra,18.0,367310.0,8854449.0,-76.212,-10.36075,3293.0
100501,2018.0,10,HUÁNUCO,05,HUAMALIES,01,LLATA,09727,Sierra,18.0,300313.0,8942315.0,-76.81937,-9.56355,3396.0
100501,2018.0,10,HUÁNUCO,05,HUAMALIES,01,LLATA,09728,Sierra,18.0,300795.0,8943717.0,-76.81491,-9.5509,3422.0
100501,2018.0,10,HUÁNUCO,05,HUAMALIES,01,LLATA,09722,Sierra,18.0,299290.0,8945216.0,-76.82854,-9.53728,3524.0
100501,2018.0,10,HUÁNUCO,05,HUAMALIES,01,LLATA,09729,Sierra,18.0,303103.0,8943720.0,-76.79389,-9.55098,3214.0
100501,2018.0,10,HUÁNUCO,05,HUAMALIES,01,LLATA,09731,Sierra,18.0,304355.0,8940515.0,-76.78264,-9.58002,3759.0
100506,2018.0,10,HUÁNUCO,05,HUAMALIES,06,MIRAFLORES,09708,Sierra,18.0,302190.0,8951284.0,-76.80185,-9.48256,3814.0
100507,2018.0,10,HUÁNUCO,05,HUAMALIES,07,MONZON,09650,Sierra,18.0,345654.0,8976700.0,-76.40511,-9.25456,1855.0
100507,2018.0,10,HUÁNUCO,05,HUAMALIES,07,MONZON,09653,Sierra,18.0,363588.0,8984405.0,-76.24163,-9.18549,1277.0
100107,2018.0,10,HUÁNUCO,01,HUANUCO,07,SAN FRANCISCO DE CAYRAN,10143,Sierra,18.0,358229.0,8891664.0,-76.29357,-10.02393,2847.0
100107,2018.0,10,HUÁNUCO,01,HUANUCO,07,SAN FRANCISCO DE CAYRAN,10141,Sierra,18.0,360409.0,8897613.0,-76.27348,-9.97021,2378.0
100510,2018.0,10,HUÁNUCO,05,HUAMALIES,10,SINGA,09694,Sierra,18.0,302657.0,8961524.0,-76.79712,-9.39001,3359.0
100510,2018.0,10,HUÁNUCO,05,HUAMALIES,10,SINGA,09693,Sierra,18.0,295779.0,8963329.0,-76.85964,-9.37336,4272.0
100510,2018.0,10,HUÁNUCO,05,HUAMALIES,10,SINGA,09692,Sierra,18.0,296076.0,8966431.0,-76.85679,-9.34534,4102.0
100606,2018.0,10,HUÁNUCO,06,LEONCIO PRADO,06,MARIANO DAMASO BERAUN,09842,Selva,18.0,392220.0,8968217.0,-75.98145,-9.33268,827.0
100605,2018.0,10,HUÁNUCO,06,LEONCIO PRADO,05,LUYANDO,09802,Selva,18.0,392270.0,8985561.0,-75.98056,-9.17583,657.0
100604,2018.0,10,HUÁNUCO,06,LEONCIO PRADO,04,JOSE CRESPO Y CASTILLO,09754,Selva,18.0,384141.0,9004149.0,-76.05405,-9.00752,718.0
100604,2018.0,10,HUÁNUCO,06,LEONCIO PRADO,04,JOSE CRESPO Y CASTILLO,09765,Selva,18.0,373012.0,9021912.0,-76.15478,-8.84659,553.0
100101,2018.0,10,HUÁNUCO,01,HUANUCO,01,HUANUCO,10109,Sierra,18.0,361552.0,8900169.0,-76.26296,-9.94713,2040.0
100101,2018.0,10,HUÁNUCO,01,HUANUCO,01,HUANUCO,10108,Sierra,18.0,358769.0,8900363.0,-76.28834,-9.94528,2364.0
100101,2018.0,10,HUÁNUCO,01,HUANUCO,01,HUANUCO,10110,Sierra,18.0,359834.0,8903175.0,-76.27852,-9.91989,2365.0
100101,2018.0,10,HUÁNUCO,01,HUANUCO,01,HUANUCO,10115,Sierra,18.0,368966.0,8908473.0,-76.19507,-9.87229,1844.0
100102,2018.0,10,HUÁNUCO,01,HUANUCO,02,AMARILIS,10122,Sierra,18.0,374760.0,8900083.0,-76.14249,-9.94834,3271.0
100102,2018.0,10,HUÁNUCO,01,HUANUCO,02,AMARILIS,10116,Sierra,18.0,366106.0,8905706.0,-76.22124,-9.89722,1915.0
100103,2018.0,10,HUÁNUCO,01,HUANUCO,03,CHINCHAO,10024,Sierra,18.0,395534.0,8919327.0,-75.9525,-9.77491,2803.0
100103,2018.0,10,HUÁNUCO,01,HUANUCO,03,CHINCHAO,10008,Sierra,18.0,393608.0,8925832.0,-75.9699,-9.71603,2939.0
100103,2018.0,10,HUÁNUCO,01,HUANUCO,03,CHINCHAO,10000,Sierra,18.0,396297.0,8944806.0,-75.9449,-9.5445,1241.0
100104,2018.0,10,HUÁNUCO,01,HUANUCO,04,CHURUBAMBA,10050,Sierra,18.0,375513.0,8915809.0,-76.13514,-9.80616,2464.0
100104,2018.0,10,HUÁNUCO,01,HUANUCO,04,CHURUBAMBA,10037,Sierra,18.0,365150.0,8922284.0,-76.22941,-9.74728,3602.0
100105,2018.0,10,HUÁNUCO,01,HUANUCO,05,MARGOS,10160,Sierra,18.0,334779.0,8889464.0,-76.50758,-10.04291,3971.0
100109,2018.0,10,HUÁNUCO,01,HUANUCO,09,SANTA MARIA DEL VALLE,10086,Sierra,18.0,375432.0,8905453.0,-76.1362,-9.89981,2839.0
100109,2018.0,10,HUÁNUCO,01,HUANUCO,09,SANTA MARIA DEL VALLE,10080,Sierra,18.0,368241.0,8910575.0,-76.20161,-9.85326,2062.0
100109,2018.0,10,HUÁNUCO,01,HUANUCO,09,SANTA MARIA DEL VALLE,10079,Sierra,18.0,367478.0,8910105.0,-76.20858,-9.85748,2004.0
100109,2018.0,10,HUÁNUCO,01,HUANUCO,09,SANTA MARIA DEL VALLE,10075,Sierra,18.0,356549.0,8912122.0,-76.30816,-9.83888,2744.0
100109,2018.0,10,HUÁNUCO,01,HUANUCO,09,SANTA MARIA DEL VALLE,10071,Sierra,18.0,364522.0,8913398.0,-76.23543,-9.82761,2595.0
100109,2018.0,10,HUÁNUCO,01,HUANUCO,09,SANTA MARIA DEL VALLE,10066,Sierra,18.0,360106.0,8916395.0,-76.27559,-9.80036,2957.0
100111,2018.0,10,HUÁNUCO,01,HUANUCO,11,PILLCO MARCA,10134,Sierra,18.0,361069.0,8889317.0,-76.26775,-10.04525,2916.0
100111,2018.0,10,HUÁNUCO,01,HUANUCO,11,PILLCO MARCA,10133,Sierra,18.0,363415.0,8890977.0,-76.24629,-10.03032,2570.0
100311,2018.0,10,HUÁNUCO,03,DOS DE MAYO,11,MARIAS,10182,Sierra,18.0,314138.0,8937676.0,-76.69365,-9.60613,3714.0
100313,2018.0,10,HUÁNUCO,03,DOS DE MAYO,13,PACHAS,10178,Sierra,18.0,304594.0,8926386.0,-76.78113,-9.70776,3645.0
100317,2018.0,10,HUÁNUCO,03,DOS DE MAYO,17,RIPAN,10220,Sierra,18.0,301320.0,8913842.0,-76.81158,-9.821,3698.0
100317,2018.0,10,HUÁNUCO,03,DOS DE MAYO,17,RIPAN,10223,Sierra,18.0,295663.0,8914909.0,-76.86309,-9.81108,3982.0
100317,2018.0,10,HUÁNUCO,03,DOS DE MAYO,17,RIPAN,10218,Sierra,18.0,299203.0,8917368.0,-76.8307,-9.78903,3663.0
100321,2018.0,10,HUÁNUCO,03,DOS DE MAYO,21,SHUNQUI,10215,Sierra,18.0,299618.0,8921287.0,-76.82672,-9.75362,3639.0
100401,2018.0,10,HUÁNUCO,04,HUACAYBAMBA,01,HUACAYBAMBA,09635,Sierra,18.0,284437.0,8998884.0,-76.9611,-9.0514,2637.0
100401,2018.0,10,HUÁNUCO,04,HUACAYBAMBA,01,HUACAYBAMBA,09637,Sierra,18.0,303610.0,9006669.0,-76.7864,-8.98192,3599.0
100404,2018.0,10,HUÁNUCO,04,HUACAYBAMBA,04,PINRA,09617,Sierra,18.0,281893.0,9019234.0,-76.98324,-8.86733,4062.0
100404,2018.0,10,HUÁNUCO,04,HUACAYBAMBA,04,PINRA,09619,Sierra,18.0,281302.0,9013424.0,-76.9889,-8.91981,3876.0
100404,2018.0,10,HUÁNUCO,04,HUACAYBAMBA,04,PINRA,09620,Sierra,18.0,283349.0,9010782.0,-76.97042,-8.9438,3857.0
100404,2018.0,10,HUÁNUCO,04,HUACAYBAMBA,04,PINRA,09623,Sierra,18.0,274721.0,9013900.0,-77.0487,-8.91518,3484.0
100404,2018.0,10,HUÁNUCO,04,HUACAYBAMBA,04,PINRA,09627,Sierra,18.0,268657.0,9010183.0,-77.10402,-8.94848,2093.0
100701,2018.0,10,HUÁNUCO,07,MARAÑON,01,HUACRACHUCO,09565,Sierra,18.0,259473.0,9050404.0,-77.18538,-8.58446,3259.0
100701,2018.0,10,HUÁNUCO,07,MARAÑON,01,HUACRACHUCO,09560,Sierra,18.0,263657.0,9053252.0,-77.14723,-8.55893,3319.0
100702,2018.0,10,HUÁNUCO,07,MARAÑON,02,CHOLON,09601,Sierra,18.0,310217.0,9031568.0,-76.72527,-8.75709,2693.0
100702,2018.0,10,HUÁNUCO,07,MARAÑON,02,CHOLON,09604,Sierra,18.0,345054.0,9039791.0,-76.40836,-8.68405,1051.0
100801,2018.0,10,HUÁNUCO,08,PACHITEA,01,PANAO,09979,Sierra,18.0,392800.0,8902681.0,-75.97788,-9.92537,2980.0
100801,2018.0,10,HUÁNUCO,08,PACHITEA,01,PANAO,09975,Sierra,18.0,396164.0,8903944.0,-75.94716,-9.91404,3368.0
100801,2018.0,10,HUÁNUCO,08,PACHITEA,01,PANAO,09984,Sierra,18.0,402838.0,8903744.0,-75.88629,-9.91601,3610.0
100801,2018.0,10,HUÁNUCO,08,PACHITEA,01,PANAO,09972,Sierra,18.0,400126.0,8904895.0,-75.911,-9.90554,3282.0
100801,2018.0,10,HUÁNUCO,08,PACHITEA,01,PANAO,09968,Sierra,18.0,391857.0,8906502.0,-75.98637,-9.89079,2425.0
100802,2018.0,10,HUÁNUCO,08,PACHITEA,02,CHAGLLA,09941,Sierra,18.0,414923.0,8919239.0,-75.77573,-9.77615,2725.0
100802,2018.0,10,HUÁNUCO,08,PACHITEA,02,CHAGLLA,09936,Sierra,18.0,400536.0,8949007.0,-75.90619,-9.50661,1161.0
100803,2018.0,10,HUÁNUCO,08,PACHITEA,03,MOLINO,09955,Sierra,18.0,381633.0,8898191.0,-76.07986,-9.96566,3383.0
100803,2018.0,10,HUÁNUCO,08,PACHITEA,03,MOLINO,09954,Sierra,18.0,382888.0,8899859.0,-76.06836,-9.95061,3451.0
100804,2018.0,10,HUÁNUCO,08,PACHITEA,04,UMARI,09921,Sierra,18.0,394391.0,8909836.0,-75.96318,-9.86071,2586.0
100902,2018.0,10,HUÁNUCO,09,PUERTO INCA,02,CODO DEL POZUZO,09908,Selva,18.0,439874.0,8939556.0,-75.54794,-9.59285,978.0
100903,2018.0,10,HUÁNUCO,09,PUERTO INCA,03,HONORIA,09862,Selva,18.0,545697.0,9042046.0,-74.58462,-8.66602,166.0
100904,2018.0,10,HUÁNUCO,09,PUERTO INCA,04,TOURNAVISTA,09879,Selva,18.0,525381.0,8990042.0,-74.769,-9.13656,446.0
100904,2018.0,10,HUÁNUCO,09,PUERTO INCA,04,TOURNAVISTA,09871,Selva,18.0,497249.0,9007370.0,-75.02503,-8.9799,217.0
100905,2018.0,10,HUÁNUCO,09,PUERTO INCA,05,YUYAPICHIS,09894,Selva,18.0,501929.0,8938247.0,-74.98242,-9.60511,229.0
110103,2018.0,11,ICA,01,ICA,03,LOS AQUIJES,12794,Costa,18.0,423429.0,8442154.0,-75.70931,-14.09045,403.0
110103,2018.0,11,ICA,01,ICA,03,LOS AQUIJES,12796,Costa,18.0,431805.0,8444395.0,-75.63167,-14.07041,602.0
110104,2018.0,11,ICA,01,ICA,04,OCUCAJE,12873,Costa,18.0,414147.0,8390986.0,-75.79692,-14.55279,654.0
110104,2018.0,11,ICA,01,ICA,04,OCUCAJE,12869,Costa,18.0,428409.0,8410582.0,-75.66402,-14.37604,309.0
110104,2018.0,11,ICA,01,ICA,04,OCUCAJE,12866,Costa,18.0,426153.0,8411570.0,-75.68491,-14.36704,314.0
110104,2018.0,11,ICA,01,ICA,04,OCUCAJE,12865,Costa,18.0,425089.0,8412608.0,-75.69476,-14.35763,319.0
110105,2018.0,11,ICA,01,ICA,05,PACHACUTEC,12840,Costa,18.0,425120.0,8433820.0,-75.69388,-14.16585,403.0
110105,2018.0,11,ICA,01,ICA,05,PACHACUTEC,12839,Costa,18.0,426773.0,8436228.0,-75.6785,-14.14412,419.0
110106,2018.0,11,ICA,01,ICA,06,PARCONA,12791,Costa,18.0,423329.0,8444416.0,-75.71018,-14.07,410.0
110107,2018.0,11,ICA,01,ICA,07,PUEBLO NUEVO,12826,Costa,18.0,423903.0,8437113.0,-75.70506,-14.13605,400.0
110107,2018.0,11,ICA,01,ICA,07,PUEBLO NUEVO,12821,Costa,18.0,423781.0,8438067.0,-75.70617,-14.12742,405.0
110107,2018.0,11,ICA,01,ICA,07,PUEBLO NUEVO,12815,Costa,18.0,429389.0,8438253.0,-75.65421,-14.12589,450.0
110107,2018.0,11,ICA,01,ICA,07,PUEBLO NUEVO,12812,Costa,18.0,423818.0,8440138.0,-75.70577,-14.1087,401.0
110107,2018.0,11,ICA,01,ICA,07,PUEBLO NUEVO,12814,Costa,18.0,424706.0,8439543.0,-75.69755,-14.1141,408.0
110108,2018.0,11,ICA,01,ICA,08,SALAS,12746,Costa,18.0,418198.0,8451542.0,-75.75749,-14.00543,429.0
110108,2018.0,11,ICA,01,ICA,08,SALAS,12745,Costa,18.0,418321.0,8451796.0,-75.75635,-14.00314,429.0
110108,2018.0,11,ICA,01,ICA,08,SALAS,12740,Costa,18.0,417124.0,8454003.0,-75.76736,-13.98315,430.0
110101,2018.0,11,ICA,01,ICA,01,ICA,12789,Costa,18.0,398753.0,8433066.0,-75.93822,-14.17184,568.0
110101,2018.0,11,ICA,01,ICA,01,ICA,12790,Costa,18.0,402872.0,8420836.0,-75.90049,-14.28256,538.0
110101,2018.0,11,ICA,01,ICA,01,ICA,12783,Costa,18.0,414715.0,8445293.0,-75.78994,-14.06183,482.0
110102,2018.0,11,ICA,01,ICA,02,LA TINGUIÑA,12762,Costa,18.0,422517.0,8452758.0,-75.71746,-13.99456,431.0
110103,2018.0,11,ICA,01,ICA,03,LOS AQUIJES,12808,Costa,18.0,425243.0,8440025.0,-75.69257,-14.10976,411.0
110103,2018.0,11,ICA,01,ICA,03,LOS AQUIJES,12800,Costa,18.0,423919.0,8440986.0,-75.70481,-14.10103,407.0
110402,2018.0,11,ICA,04,PALPA,02,LLIPATA,12884,Costa,18.0,482904.0,8386500.0,-75.15873,-14.59466,465.0
110404,2018.0,11,ICA,04,PALPA,04,SANTA CRUZ,12876,Costa,18.0,475876.0,8408922.0,-75.22378,-14.39188,1259.0
110405,2018.0,11,ICA,04,PALPA,05,TIBILLO,12875,Sierra,18.0,482633.0,8435636.0,-75.16093,-14.15038,2420.0
110403,2018.0,11,ICA,04,PALPA,03,RIO GRANDE,12879,Costa,18.0,480701.0,8400891.0,-75.17908,-14.46453,614.0
110301,2018.0,11,ICA,03,NAZCA,01,NAZCA,12899,Costa,18.0,485291.0,8349109.0,-75.13678,-14.93274,366.0
110301,2018.0,11,ICA,03,NAZCA,01,NAZCA,12897,Costa,18.0,496156.0,8358024.0,-75.03573,-14.85217,453.0
110301,2018.0,11,ICA,03,NAZCA,01,NAZCA,12895,Costa,18.0,507252.0,8364113.0,-74.93261,-14.79711,725.0
110301,2018.0,11,ICA,03,NAZCA,01,NAZCA,12893,Costa,18.0,518081.0,8367404.0,-74.832,-14.7673,1454.0
110302,2018.0,11,ICA,03,NAZCA,02,CHANGUILLO,12885,Costa,18.0,458277.0,8366620.0,-75.38769,-14.77413,586.0
110303,2018.0,11,ICA,03,NAZCA,03,EL INGENIO,12890,Costa,18.0,508070.0,8380461.0,-74.92505,-14.6493,1197.0
110305,2018.0,11,ICA,03,NAZCA,05,VISTA ALEGRE,12903,Costa,18.0,521747.0,8345451.0,-74.79775,-14.96576,1244.0
110305,2018.0,11,ICA,03,NAZCA,05,VISTA ALEGRE,12902,Costa,18.0,521664.0,8351182.0,-74.79857,-14.91395,1530.0
110108,2018.0,11,ICA,01,ICA,08,SALAS,12743,Costa,18.0,418181.0,8453081.0,-75.7576,-13.99152,428.0
110108,2018.0,11,ICA,01,ICA,08,SALAS,12735,Costa,18.0,392294.0,8464958.0,-75.99682,-13.88327,302.0
110109,2018.0,11,ICA,01,ICA,09,SAN JOSE DE LOS MOLINOS,12752,Costa,18.0,430353.0,8456712.0,-75.64481,-13.95901,694.0
110109,2018.0,11,ICA,01,ICA,09,SAN JOSE DE LOS MOLINOS,12748,Costa,18.0,433477.0,8470887.0,-75.61555,-13.83093,1103.0
110110,2018.0,11,ICA,01,ICA,10,SAN JUAN BAUTISTA,12773,Costa,18.0,419218.0,8450737.0,-75.74806,-14.01274,427.0
110110,2018.0,11,ICA,01,ICA,10,SAN JUAN BAUTISTA,12772,Costa,18.0,419150.0,8451333.0,-75.74868,-14.00735,428.0
110110,2018.0,11,ICA,01,ICA,10,SAN JUAN BAUTISTA,12768,Costa,18.0,420678.0,8452422.0,-75.7345,-13.99755,430.0
110111,2018.0,11,ICA,01,ICA,11,SANTIAGO,12860,Costa,18.0,430491.0,8421805.0,-75.64442,-14.27463,373.0
110111,2018.0,11,ICA,01,ICA,11,SANTIAGO,12855,Costa,18.0,422674.0,8428518.0,-75.71669,-14.21373,369.0
110111,2018.0,11,ICA,01,ICA,11,SANTIAGO,12848,Costa,18.0,425765.0,8431932.0,-75.68795,-14.18294,397.0
